{
"type": "FeatureCollection",
"features": [
{ "type": "Feature", "properties": { "Country": "United Arab Emirates", "Function": "1-345---", "LOCODE": "AEAUH", "Name": "Abu Dhabi", "NameWoDiac": "Abu Dhabi", "Status": "AI", "outflows": 41597.142851999997 }, "geometry": { "type": "Point", "coordinates": [ 54.366666666666667, 24.466666666666665 ] } },
{ "type": "Feature", "properties": { "Country": "United Arab Emirates", "Function": "1-------", "LOCODE": "AERUW", "Name": "Ar Ruways", "NameWoDiac": "Ar Ruways", "Status": "RL", "outflows": 166556.0 }, "geometry": { "type": "Point", "coordinates": [ 52.733333333333334, 24.116666666666667 ] } },
{ "type": "Feature", "properties": { "Country": "United Arab Emirates", "Function": "1-------", "LOCODE": "AEKLF", "Name": "Khor al Fakkan", "NameWoDiac": "Khor al Fakkan", "Status": "RL", "outflows": 790406.5 }, "geometry": { "type": "Point", "coordinates": [ 56.35, 25.333333333333332 ] } },
{ "type": "Feature", "properties": { "Country": "United Arab Emirates", "Function": "1-3-----", "LOCODE": "AEMKH", "Name": "Mina Khalid", "NameWoDiac": "Mina Khalid", "Status": "RL", "outflows": 646965.0 }, "geometry": { "type": "Point", "coordinates": [ 55.366666666666667, 25.35 ] } },
{ "type": "Feature", "properties": { "Country": "United Arab Emirates", "Function": "1-------", "LOCODE": "AEKHL", "Name": "Mina Khalifa\/Abu Dhabi", "NameWoDiac": "Mina Khalifa\/Abu Dhabi", "Status": "RL", "outflows": 18341458.820419993 }, "geometry": { "type": "Point", "coordinates": [ 54.666666666666664, 24.833333333333332 ] } },
{ "type": "Feature", "properties": { "Country": "United Arab Emirates", "Function": "1--4----", "LOCODE": "AEQIW", "Name": "Umm al Qaiwain", "NameWoDiac": "Umm al Qaiwain", "Status": "AI", "outflows": 14196.0 }, "geometry": { "type": "Point", "coordinates": [ 55.55, 25.566666666666666 ] } },
{ "type": "Feature", "properties": { "Country": "Antigua and Barbuda", "Function": "1-------", "LOCODE": "AGSJO", "Name": "Saint John's", "NameWoDiac": "Saint John's", "Status": "AI", "outflows": 208663.0 }, "geometry": { "type": "Point", "coordinates": [ -61.85, 17.116666666666667 ] } },
{ "type": "Feature", "properties": { "Country": "Argentina", "Function": "1--4----", "LOCODE": "ARBHI", "Name": "Bahía Blanca", "NameWoDiac": "Bahia Blanca", "Status": "AI", "outflows": 677327.625 }, "geometry": { "type": "Point", "coordinates": [ -62.283333333333331, -38.716666666666669 ] } },
{ "type": "Feature", "properties": { "Country": "Argentina", "Function": "12345---", "LOCODE": "ARBUE", "Name": "Buenos Aires", "NameWoDiac": "Buenos Aires", "Status": "AI", "outflows": 11083411.036479998 }, "geometry": { "type": "Point", "coordinates": [ -58.666666666666664, -34.583333333333336 ] } },
{ "type": "Feature", "properties": { "Country": "Argentina", "Function": "1-345---", "LOCODE": "ARMDQ", "Name": "Mar del Plata", "NameWoDiac": "Mar del Plata", "Status": "AI", "outflows": 24960.0 }, "geometry": { "type": "Point", "coordinates": [ -57.533333333333331, -38.05 ] } },
{ "type": "Feature", "properties": { "Country": "Argentina", "Function": "1--4----", "LOCODE": "ARPUD", "Name": "Puerto Deseado", "NameWoDiac": "Puerto Deseado", "Status": "AI", "outflows": 24960.0 }, "geometry": { "type": "Point", "coordinates": [ -65.9, -47.75 ] } },
{ "type": "Feature", "properties": { "Country": "Argentina", "Function": "1--4----", "LOCODE": "ARPMY", "Name": "Puerto Madryn", "NameWoDiac": "Puerto Madryn", "Status": "AI", "outflows": 671555.625 }, "geometry": { "type": "Point", "coordinates": [ -65.033333333333331, -42.75 ] } },
{ "type": "Feature", "properties": { "Country": "Argentina", "Function": "12345---", "LOCODE": "ARROS", "Name": "Rosario", "NameWoDiac": "Rosario", "Status": "AI", "outflows": 110227.0 }, "geometry": { "type": "Point", "coordinates": [ -60.65, -32.95 ] } },
{ "type": "Feature", "properties": { "Country": "Argentina", "Function": "1-------", "LOCODE": "ARSAE", "Name": "San Antonio Este", "NameWoDiac": "San Antonio Este", "Status": "RQ", "outflows": 23075.0 }, "geometry": { "type": "Point", "coordinates": [ -64.733333333333334, -40.8 ] } },
{ "type": "Feature", "properties": { "Country": "Argentina", "Function": "1--4----", "LOCODE": "ARUSH", "Name": "Ushuaia", "NameWoDiac": "Ushuaia", "Status": "AI", "outflows": 30732.0 }, "geometry": { "type": "Point", "coordinates": [ -68.3, -54.8 ] } },
{ "type": "Feature", "properties": { "Country": "Argentina", "Function": "1-------", "LOCODE": "ARZAE", "Name": "Zárate", "NameWoDiac": "Zarate", "Status": "AI", "outflows": 164645.0 }, "geometry": { "type": "Point", "coordinates": [ -59.033333333333331, -34.1 ] } },
{ "type": "Feature", "properties": { "Country": "American Samoa", "Function": "1--45---", "LOCODE": "ASPPG", "Name": "Pago Pago", "NameWoDiac": "Pago Pago", "Status": "AI", "outflows": 338184.5 }, "geometry": { "type": "Point", "coordinates": [ -170.7, 14.266666666666667 ] } },
{ "type": "Feature", "properties": { "Country": "Australia", "Function": "12345---", "LOCODE": "AUADL", "Name": "Adelaide", "NameWoDiac": "Adelaide", "Status": "AC", "outflows": 5338947.2004299983 }, "geometry": { "type": "Point", "coordinates": [ 138.583333333333343, -34.916666666666664 ] } },
{ "type": "Feature", "properties": { "Country": "Australia", "Function": "12345---", "LOCODE": "AUBNE", "Name": "Brisbane", "NameWoDiac": "Brisbane", "Status": "AC", "outflows": 8402703.6401499975 }, "geometry": { "type": "Point", "coordinates": [ 153.01666666666668, -27.466666666666665 ] } },
{ "type": "Feature", "properties": { "Country": "Australia", "Function": "12345---", "LOCODE": "AUDRW", "Name": "Darwin", "NameWoDiac": "Darwin", "Status": "AC", "outflows": 88640.416664000004 }, "geometry": { "type": "Point", "coordinates": [ 130.833333333333343, -12.45 ] } },
{ "type": "Feature", "properties": { "Country": "Australia", "Function": "12345---", "LOCODE": "AUMEL", "Name": "Melbourne", "NameWoDiac": "Melbourne", "Status": "AC", "outflows": 9957826.0957300067 }, "geometry": { "type": "Point", "coordinates": [ 144.966666666666669, -37.81666666666667 ] } },
{ "type": "Feature", "properties": { "Country": "Australia", "Function": "12345---", "LOCODE": "AUSYD", "Name": "Sydney", "NameWoDiac": "Sydney", "Status": "AC", "outflows": 10352110.143530006 }, "geometry": { "type": "Point", "coordinates": [ 151.2, -33.85 ] } },
{ "type": "Feature", "properties": { "Country": "Aruba", "Function": "1-------", "LOCODE": "AWBAR", "Name": "Barcadera", "NameWoDiac": "Barcadera", "Status": "RL", "outflows": 65431.8 }, "geometry": { "type": "Point", "coordinates": [ -69.983333333333334, 12.483333333333333 ] } },
{ "type": "Feature", "properties": { "Country": "Bangladesh", "Function": "1--45---", "LOCODE": "BDCGP", "Name": "Chattogram", "NameWoDiac": "Chattogram", "Status": "AI", "outflows": 1379549.0523300001 }, "geometry": { "type": "Point", "coordinates": [ 91.833333333333329, 22.333333333333332 ] } },
{ "type": "Feature", "properties": { "Country": "Belgium", "Function": "12345---", "LOCODE": "BEANR", "Name": "Antwerpen", "NameWoDiac": "Antwerpen", "Status": "AI", "outflows": 51827814.560638025 }, "geometry": { "type": "Point", "coordinates": [ 4.416666666666667, 51.216666666666669 ] } },
{ "type": "Feature", "properties": { "Country": "Belgium", "Function": "1234----", "LOCODE": "BEGNE", "Name": "Gent (Ghent)", "NameWoDiac": "Gent (Ghent)", "Status": "AI", "outflows": 13260.0 }, "geometry": { "type": "Point", "coordinates": [ 3.716666666666667, 51.05 ] } },
{ "type": "Feature", "properties": { "Country": "Belgium", "Function": "1-3-----", "LOCODE": "BEZEE", "Name": "Zeebrugge", "NameWoDiac": "Zeebrugge", "Status": "AI", "outflows": 5650583.2502299985 }, "geometry": { "type": "Point", "coordinates": [ 3.2, 51.333333333333336 ] } },
{ "type": "Feature", "properties": { "Country": "Bahrain", "Function": "1-------", "LOCODE": "BHMIN", "Name": "Mina Sulman Port", "NameWoDiac": "Mina Sulman Port", "Status": "AA", "outflows": 632118.5 }, "geometry": { "type": "Point", "coordinates": [ 50.616666666666667, 26.2 ] } },
{ "type": "Feature", "properties": { "Country": "Bonaire, Sint Eustatius and Saba", "Function": "1-------", "LOCODE": "BQKRA", "Name": "Kralendijk", "NameWoDiac": "Kralendijk", "Status": "AI", "outflows": 117162.5 }, "geometry": { "type": "Point", "coordinates": [ -68.266666666666666, 12.15 ] } },
{ "type": "Feature", "properties": { "Country": "Brazil", "Function": "-23-----", "LOCODE": "BRIGI", "Name": "Itaguaí", "NameWoDiac": "Itaguai", "Status": "RL", "outflows": 2879859.0476199985 }, "geometry": { "type": "Point", "coordinates": [ -43.766666666666666, -22.866666666666667 ] } },
{ "type": "Feature", "properties": { "Country": "Brazil", "Function": "1-3-----", "LOCODE": "BRIOA", "Name": "Itapoá", "NameWoDiac": "Itapoa", "Status": "RL", "outflows": 9027277.19 }, "geometry": { "type": "Point", "coordinates": [ -48.6, -26.116666666666667 ] } },
{ "type": "Feature", "properties": { "Country": "Brazil", "Function": "1-34----", "LOCODE": "BRNVT", "Name": "Navegantes", "NameWoDiac": "Navegantes", "Status": "AI", "outflows": 10279036.91334 }, "geometry": { "type": "Point", "coordinates": [ -48.65, -26.9 ] } },
{ "type": "Feature", "properties": { "Country": "Brazil", "Function": "1--4----", "LOCODE": "BRPNG", "Name": "Paranaguá", "NameWoDiac": "Paranagua", "Status": "AI", "outflows": 13802196.524050001 }, "geometry": { "type": "Point", "coordinates": [ -48.5, -25.516666666666666 ] } },
{ "type": "Feature", "properties": { "Country": "Brazil", "Function": "12------", "LOCODE": "BRPEC", "Name": "Pecém Pt\/São Gonçalo do Amarante", "NameWoDiac": "Pecem Pt\/Sao Goncalo do Amarante", "Status": "AA", "outflows": 2174063.6046599997 }, "geometry": { "type": "Point", "coordinates": [ -38.866666666666667, -3.533333333333333 ] } },
{ "type": "Feature", "properties": { "Country": "Brazil", "Function": "123-567-", "LOCODE": "BRRIO", "Name": "Rio de Janeiro", "NameWoDiac": "Rio de Janeiro", "Status": "AA", "outflows": 9600221.3041699976 }, "geometry": { "type": "Point", "coordinates": [ -43.233333333333334, -22.883333333333333 ] } },
{ "type": "Feature", "properties": { "Country": "Brazil", "Function": "1-------", "LOCODE": "BRMCP", "Name": "Santana Pt.\/Macapá", "NameWoDiac": "Santana Pt.\/Macapa", "Status": "AA", "outflows": 837504.77784000011 }, "geometry": { "type": "Point", "coordinates": [ -51.166666666666664, -0.05 ] } },
{ "type": "Feature", "properties": { "Country": "Brazil", "Function": "1234----", "LOCODE": "BRSSZ", "Name": "Santos", "NameWoDiac": "Santos", "Status": "AI", "outflows": 17682777.003890004 }, "geometry": { "type": "Point", "coordinates": [ -46.333333333333336, -23.95 ] } },
{ "type": "Feature", "properties": { "Country": "Brazil", "Function": "1-34----", "LOCODE": "BRSLZ", "Name": "São Luís", "NameWoDiac": "Sao Luis", "Status": "AI", "outflows": 45240.0 }, "geometry": { "type": "Point", "coordinates": [ -44.3, -2.5 ] } },
{ "type": "Feature", "properties": { "Country": "Brazil", "Function": "1-------", "LOCODE": "BRVIX", "Name": "Vitória Pt", "NameWoDiac": "Vitoria Pt", "Status": "AA", "outflows": 738129.52788000007 }, "geometry": { "type": "Point", "coordinates": [ -40.333333333333336, -20.316666666666666 ] } },
{ "type": "Feature", "properties": { "Country": "Bahamas", "Function": "1--45---", "LOCODE": "BSNAS", "Name": "Nassau", "NameWoDiac": "Nassau", "Status": "AI", "outflows": 62842.0 }, "geometry": { "type": "Point", "coordinates": [ -77.35, 25.083333333333332 ] } },
{ "type": "Feature", "properties": { "Country": "Belize", "Function": "1-34----", "LOCODE": "BZBGK", "Name": "Big Creek", "NameWoDiac": "Big Creek", "Status": "RL", "outflows": 199368.0 }, "geometry": { "type": "Point", "coordinates": [ -88.4, 16.516666666666666 ] } },
{ "type": "Feature", "properties": { "Country": "Canada", "Function": "1-34----", "LOCODE": "CANWP", "Name": "Argentia", "NameWoDiac": "Argentia", "Status": "AI", "outflows": 27248.000001 }, "geometry": { "type": "Point", "coordinates": [ -54.0, 47.3 ] } },
{ "type": "Feature", "properties": { "Country": "Canada", "Function": "1-34-6--", "LOCODE": "CASJB", "Name": "Saint-John", "NameWoDiac": "Saint-John", "Status": "AS", "outflows": 389420.2 }, "geometry": { "type": "Point", "coordinates": [ -66.066666666666663, 45.266666666666666 ] } },
{ "type": "Feature", "properties": { "Country": "Canada", "Function": "1-3-----", "LOCODE": "CASJF", "Name": "Saint-John's", "NameWoDiac": "Saint-John's", "Status": "AS", "outflows": 26845.0 }, "geometry": { "type": "Point", "coordinates": [ -52.733333333333334, 47.56666666666667 ] } },
{ "type": "Feature", "properties": { "Country": "Congo, The Democratic Republic of the", "Function": "1-3-----", "LOCODE": "CDBNW", "Name": "Banana", "NameWoDiac": "Banana", "Status": "RL", "outflows": 48681.0 }, "geometry": { "type": "Point", "coordinates": [ 12.401211892732039, -6.003633266930797 ] } },
{ "type": "Feature", "properties": { "Country": "Congo", "Function": "1--45---", "LOCODE": "CGPNR", "Name": "Pointe Noire", "NameWoDiac": "Pointe Noire", "Status": "AI", "outflows": 3473713.5811700015 }, "geometry": { "type": "Point", "coordinates": [ 11.85, -4.8 ] } },
{ "type": "Feature", "properties": { "Country": "Côte d'Ivoire", "Function": "1--45---", "LOCODE": "CIABJ", "Name": "Abidjan", "NameWoDiac": "Abidjan", "Status": "AI", "outflows": 3248845.4334399998 }, "geometry": { "type": "Point", "coordinates": [ -4.016666666666667, 5.333333333333333 ] } },
{ "type": "Feature", "properties": { "Country": "Côte d'Ivoire", "Function": "1-34----", "LOCODE": "CISPY", "Name": "San-Pédro", "NameWoDiac": "San-Pedro", "Status": "AI", "outflows": 2312502.0286400001 }, "geometry": { "type": "Point", "coordinates": [ -6.616666666666667, 4.733333333333333 ] } },
{ "type": "Feature", "properties": { "Country": "Chile", "Function": "1--4----", "LOCODE": "CLANF", "Name": "Antofagasta", "NameWoDiac": "Antofagasta", "Status": "AI", "outflows": 2136460.625 }, "geometry": { "type": "Point", "coordinates": [ -70.38333333333334, -23.633333333333333 ] } },
{ "type": "Feature", "properties": { "Country": "Chile", "Function": "1-34----", "LOCODE": "CLARI", "Name": "Arica", "NameWoDiac": "Arica", "Status": "AI", "outflows": 1400600.825 }, "geometry": { "type": "Point", "coordinates": [ -70.316666666666663, -18.483333333333334 ] } },
{ "type": "Feature", "properties": { "Country": "Chile", "Function": "123-----", "LOCODE": "CLCNL", "Name": "Coronel", "NameWoDiac": "Coronel", "Status": "AI", "outflows": 5437390.8332000002 }, "geometry": { "type": "Point", "coordinates": [ -73.15, -37.016666666666666 ] } },
{ "type": "Feature", "properties": { "Country": "Chile", "Function": "1--4----", "LOCODE": "CLIQQ", "Name": "Iquique", "NameWoDiac": "Iquique", "Status": "AI", "outflows": 1915647.5 }, "geometry": { "type": "Point", "coordinates": [ -70.13333333333334, -20.216666666666665 ] } },
{ "type": "Feature", "properties": { "Country": "Chile", "Function": "123-----", "LOCODE": "CLLQN", "Name": "Lirquén", "NameWoDiac": "Lirquen", "Status": "AI", "outflows": 3185838.4995000004 }, "geometry": { "type": "Point", "coordinates": [ -72.983333333333334, -36.7 ] } },
{ "type": "Feature", "properties": { "Country": "Chile", "Function": "1-------", "LOCODE": "CLMJS", "Name": "Mejillones", "NameWoDiac": "Mejillones", "Status": "AI", "outflows": 32362.2 }, "geometry": { "type": "Point", "coordinates": [ -70.45, -23.1 ] } },
{ "type": "Feature", "properties": { "Country": "Chile", "Function": "123-----", "LOCODE": "CLPAG", "Name": "Puerto Angamos", "NameWoDiac": "Puerto Angamos", "Status": "RL", "outflows": 5408319.3663000017 }, "geometry": { "type": "Point", "coordinates": [ -70.45, -23.083333333333332 ] } },
{ "type": "Feature", "properties": { "Country": "Chile", "Function": "1-34----", "LOCODE": "CLPUQ", "Name": "Punta Arenas", "NameWoDiac": "Punta Arenas", "Status": "AI", "outflows": 18174.0 }, "geometry": { "type": "Point", "coordinates": [ -70.933333333333337, -53.133333333333333 ] } },
{ "type": "Feature", "properties": { "Country": "Chile", "Function": "123-----", "LOCODE": "CLSAI", "Name": "San Antonio", "NameWoDiac": "San Antonio", "Status": "AI", "outflows": 9417069.025 }, "geometry": { "type": "Point", "coordinates": [ -71.6, -33.6 ] } },
{ "type": "Feature", "properties": { "Country": "Chile", "Function": "1-3-----", "LOCODE": "CLSVE", "Name": "San Vicente", "NameWoDiac": "San Vicente", "Status": "AI", "outflows": 945075.625 }, "geometry": { "type": "Point", "coordinates": [ -73.13333333333334, -36.7 ] } },
{ "type": "Feature", "properties": { "Country": "Chile", "Function": "1234----", "LOCODE": "CLVAP", "Name": "Valparaiso", "NameWoDiac": "Valparaiso", "Status": "AI", "outflows": 2059925.0 }, "geometry": { "type": "Point", "coordinates": [ -71.63333333333334, -33.033333333333331 ] } },
{ "type": "Feature", "properties": { "Country": "China", "Function": "1-------", "LOCODE": "CNCFD", "Name": "Caofeidian Pt", "NameWoDiac": "Caofeidian Pt", "Status": "AS", "outflows": 168350.0 }, "geometry": { "type": "Point", "coordinates": [ 118.533333333333331, 38.95 ] } },
{ "type": "Feature", "properties": { "Country": "China", "Function": "1----6--", "LOCODE": "CNDCB", "Name": "DA CHAN BAY", "NameWoDiac": "DA CHAN BAY", "Status": "RL", "outflows": 4367401.0713399984 }, "geometry": { "type": "Point", "coordinates": [ 113.86666666666666, 22.533333333333335 ] } },
{ "type": "Feature", "properties": { "Country": "China", "Function": "1-------", "LOCODE": "CNDGG", "Name": "Dongguan Pt", "NameWoDiac": "Dongguan Pt", "Status": "AS", "outflows": 94354.0 }, "geometry": { "type": "Point", "coordinates": [ 113.75, 23.033333333333335 ] } },
{ "type": "Feature", "properties": { "Country": "China", "Function": "1-------", "LOCODE": "CNDJK", "Name": "Dongjiangkou", "NameWoDiac": "Dongjiangkou", "Status": "AS", "outflows": 386750.0 }, "geometry": { "type": "Point", "coordinates": [ 119.52253982618285, 35.308885331582253 ] } },
{ "type": "Feature", "properties": { "Country": "China", "Function": "--3-----", "LOCODE": "CNFQG", "Name": "Fuqing", "NameWoDiac": "Fuqing", "Status": "RL", "outflows": 1164780.9333599997 }, "geometry": { "type": "Point", "coordinates": [ 119.36666666666666, 25.716666666666665 ] } },
{ "type": "Feature", "properties": { "Country": "China", "Function": "1-------", "LOCODE": "CNHUI", "Name": "Huizhou Pt", "NameWoDiac": "Huizhou Pt", "Status": "AS", "outflows": 27300.0 }, "geometry": { "type": "Point", "coordinates": [ 114.36666666666666, 23.083333333333332 ] } },
{ "type": "Feature", "properties": { "Country": "China", "Function": "1-------", "LOCODE": "CNHMN", "Name": "Humen Pt", "NameWoDiac": "Humen Pt", "Status": "AS", "outflows": 630027.5 }, "geometry": { "type": "Point", "coordinates": [ 113.666666666666671, 22.833333333333332 ] } },
{ "type": "Feature", "properties": { "Country": "China", "Function": "1-3-----", "LOCODE": "CNJGY", "Name": "Jiangyin", "NameWoDiac": "Jiangyin", "Status": "RL", "outflows": 594906.0 }, "geometry": { "type": "Point", "coordinates": [ 119.3, 25.466666666666665 ] } },
{ "type": "Feature", "properties": { "Country": "China", "Function": "1-------", "LOCODE": "CNJNZ", "Name": "Jinzhou Pt", "NameWoDiac": "Jinzhou Pt", "Status": "AS", "outflows": 684866.0 }, "geometry": { "type": "Point", "coordinates": [ 121.15, 41.116666666666667 ] } },
{ "type": "Feature", "properties": { "Country": "China", "Function": "1-------", "LOCODE": "CNLYG", "Name": "Lianyungang", "NameWoDiac": "Lianyungang", "Status": "AS", "outflows": 9288988.8094500005 }, "geometry": { "type": "Point", "coordinates": [ 119.433333333333337, 34.716666666666669 ] } },
{ "type": "Feature", "properties": { "Country": "China", "Function": "1-------", "LOCODE": "CNNSA", "Name": "Nansha Pt", "NameWoDiac": "Nansha Pt", "Status": "AS", "outflows": 42484636.038412996 }, "geometry": { "type": "Point", "coordinates": [ 113.583333333333329, 22.75 ] } },
{ "type": "Feature", "properties": { "Country": "China", "Function": "1-------", "LOCODE": "CNNTG", "Name": "Nantong Pt", "NameWoDiac": "Nantong Pt", "Status": "AS", "outflows": 261618.5 }, "geometry": { "type": "Point", "coordinates": [ 120.85, 32.016666666666666 ] } },
{ "type": "Feature", "properties": { "Country": "China", "Function": "1-------", "LOCODE": "CNSHP", "Name": "Qinhuangdao Pt", "NameWoDiac": "Qinhuangdao Pt", "Status": "AS", "outflows": 105300.0 }, "geometry": { "type": "Point", "coordinates": [ 119.583333333333329, 39.916666666666664 ] } },
{ "type": "Feature", "properties": { "Country": "China", "Function": "1-------", "LOCODE": "CNQZJ", "Name": "Quanzhou Pt", "NameWoDiac": "Quanzhou Pt", "Status": "AS", "outflows": 512451.33335000003 }, "geometry": { "type": "Point", "coordinates": [ 118.6, 24.933333333333334 ] } },
{ "type": "Feature", "properties": { "Country": "China", "Function": "1-------", "LOCODE": "CNRZH", "Name": "Rizhao Pt", "NameWoDiac": "Rizhao Pt", "Status": "AS", "outflows": 1075073.00003 }, "geometry": { "type": "Point", "coordinates": [ 119.533333333333331, 35.383333333333333 ] } },
{ "type": "Feature", "properties": { "Country": "China", "Function": "1-------", "LOCODE": "CNSHK", "Name": "Shekou Pt", "NameWoDiac": "Shekou Pt", "Status": "AS", "outflows": 74635666.140550002 }, "geometry": { "type": "Point", "coordinates": [ 113.916666666666671, 22.483333333333334 ] } },
{ "type": "Feature", "properties": { "Country": "China", "Function": "1-------", "LOCODE": "CNSHD", "Name": "Shidao Pt", "NameWoDiac": "Shidao Pt", "Status": "AS", "outflows": 54886.0 }, "geometry": { "type": "Point", "coordinates": [ 122.433333333333337, 36.866666666666667 ] } },
{ "type": "Feature", "properties": { "Country": "China", "Function": "1-------", "LOCODE": "CNWIH", "Name": "Waihai", "NameWoDiac": "Waihai", "Status": "AS", "outflows": 50050.0 }, "geometry": { "type": "Point", "coordinates": [ 113.13333333333334, 22.583333333333332 ] } },
{ "type": "Feature", "properties": { "Country": "China", "Function": "1--4----", "LOCODE": "CNWEF", "Name": "Weifang Pt", "NameWoDiac": "Weifang Pt", "Status": "AS", "outflows": 65923.0 }, "geometry": { "type": "Point", "coordinates": [ 119.1, 36.716666666666669 ] } },
{ "type": "Feature", "properties": { "Country": "China", "Function": "1--45---", "LOCODE": "CNWEI", "Name": "Weihai", "NameWoDiac": "Weihai", "Status": "AS", "outflows": 238257.5 }, "geometry": { "type": "Point", "coordinates": [ 122.11666666666666, 37.516666666666666 ] } },
{ "type": "Feature", "properties": { "Country": "China", "Function": "1-------", "LOCODE": "CNYPG", "Name": "Yangpu Pt", "NameWoDiac": "Yangpu Pt", "Status": "AS", "outflows": 872543.16658000019 }, "geometry": { "type": "Point", "coordinates": [ 109.2, 19.7 ] } },
{ "type": "Feature", "properties": { "Country": "China", "Function": "1-------", "LOCODE": "CNYTN", "Name": "Yantian Pt", "NameWoDiac": "Yantian Pt", "Status": "AS", "outflows": 74187678.537459999 }, "geometry": { "type": "Point", "coordinates": [ 119.86666666666666, 26.85 ] } },
{ "type": "Feature", "properties": { "Country": "China", "Function": "1-------", "LOCODE": "CNYIK", "Name": "Yingkou Pt", "NameWoDiac": "Yingkou Pt", "Status": "AS", "outflows": 1421671.0 }, "geometry": { "type": "Point", "coordinates": [ 122.216666666666669, 40.65 ] } },
{ "type": "Feature", "properties": { "Country": "China", "Function": "1-------", "LOCODE": "CNZJG", "Name": "Zhangjiagang", "NameWoDiac": "Zhangjiagang", "Status": "AS", "outflows": 196865.5 }, "geometry": { "type": "Point", "coordinates": [ 120.533333333333331, 31.866666666666667 ] } },
{ "type": "Feature", "properties": { "Country": "China", "Function": "1-------", "LOCODE": "CNZZU", "Name": "Zhangzhou Pt", "NameWoDiac": "Zhangzhou Pt", "Status": "AS", "outflows": 340964.0 }, "geometry": { "type": "Point", "coordinates": [ 117.65, 24.516666666666666 ] } },
{ "type": "Feature", "properties": { "Country": "China", "Function": "1-------", "LOCODE": "CNZUH", "Name": "Zhuhai Pt", "NameWoDiac": "Zhuhai Pt", "Status": "AS", "outflows": 929467.5 }, "geometry": { "type": "Point", "coordinates": [ 113.566666666666663, 22.283333333333335 ] } },
{ "type": "Feature", "properties": { "Country": "Colombia", "Function": "1--4----", "LOCODE": "COLET", "Name": "Leticia", "NameWoDiac": "Leticia", "Status": "AI", "outflows": 9675.0 }, "geometry": { "type": "Point", "coordinates": [ -69.933333333333337, -4.216666666666667 ] } },
{ "type": "Feature", "properties": { "Country": "Colombia", "Function": "1--4----", "LOCODE": "COTLU", "Name": "Tolú", "NameWoDiac": "Tolu", "Status": "AI", "outflows": 9675.0 }, "geometry": { "type": "Point", "coordinates": [ -75.583333333333329, 9.533333333333333 ] } },
{ "type": "Feature", "properties": { "Country": "Colombia", "Function": "1--4----", "LOCODE": "COTRB", "Name": "Turbo", "NameWoDiac": "Turbo", "Status": "AI", "outflows": 799731.40001499979 }, "geometry": { "type": "Point", "coordinates": [ -76.716666666666669, 8.083333333333334 ] } },
{ "type": "Feature", "properties": { "Country": "Costa Rica", "Function": "123-----", "LOCODE": "CRCAL", "Name": "Caldera", "NameWoDiac": "Caldera", "Status": "RL", "outflows": 704191.8 }, "geometry": { "type": "Point", "coordinates": [ -84.716666666666669, 9.95 ] } },
{ "type": "Feature", "properties": { "Country": "Costa Rica", "Function": "1-3-----", "LOCODE": "CRMOB", "Name": "Moín", "NameWoDiac": "Moin", "Status": "RL", "outflows": 2884497.4165249998 }, "geometry": { "type": "Point", "coordinates": [ -83.083333333333329, 10.0 ] } },
{ "type": "Feature", "properties": { "Country": "Costa Rica", "Function": "1-3-----", "LOCODE": "CRLIO", "Name": "Puerto Limón", "NameWoDiac": "Puerto Limon", "Status": "AI", "outflows": 2372283.3334299996 }, "geometry": { "type": "Point", "coordinates": [ -83.033333333333331, 10.0 ] } },
{ "type": "Feature", "properties": { "Country": "Cuba", "Function": "1234----", "LOCODE": "CUMAR", "Name": "Mariel", "NameWoDiac": "Mariel", "Status": "RL", "outflows": 370296.8 }, "geometry": { "type": "Point", "coordinates": [ -82.75, 23.0 ] } },
{ "type": "Feature", "properties": { "Country": "Cabo Verde", "Function": "1-3-----", "LOCODE": "CVMIN", "Name": "Mindelo", "NameWoDiac": "Mindelo", "Status": "RL", "outflows": 114309.0 }, "geometry": { "type": "Point", "coordinates": [ -25.0, 16.883333333333333 ] } },
{ "type": "Feature", "properties": { "Country": "Curaçao", "Function": "1-------", "LOCODE": "CWWIL", "Name": "Willemstad", "NameWoDiac": "Willemstad", "Status": "AI", "outflows": 721990.3 }, "geometry": { "type": "Point", "coordinates": [ -68.916666666666671, 12.1 ] } },
{ "type": "Feature", "properties": { "Country": "Christmas Island", "Function": "1-------", "LOCODE": "CXFFC", "Name": "Flying Fish Cove", "NameWoDiac": "Flying Fish Cove", "Status": "RL", "outflows": 2520.0 }, "geometry": { "type": "Point", "coordinates": [ 105.716666666666669, -10.416666666666666 ] } },
{ "type": "Feature", "properties": { "Country": "Cyprus", "Function": "1-3-5---", "LOCODE": "CYLMS", "Name": "Limassol", "NameWoDiac": "Limassol", "Status": "AA", "outflows": 2366252.75 }, "geometry": { "type": "Point", "coordinates": [ 33.05, 34.68333333333333 ] } },
{ "type": "Feature", "properties": { "Country": "Germany", "Function": "123-----", "LOCODE": "DEBKE", "Name": "Brake", "NameWoDiac": "Brake", "Status": "AF", "outflows": 27774.0 }, "geometry": { "type": "Point", "coordinates": [ 8.483333333333333, 53.333333333333336 ] } },
{ "type": "Feature", "properties": { "Country": "Germany", "Function": "123-----", "LOCODE": "DECUX", "Name": "Cuxhaven", "NameWoDiac": "Cuxhaven", "Status": "AF", "outflows": 128258.0 }, "geometry": { "type": "Point", "coordinates": [ 8.7, 53.883333333333333 ] } },
{ "type": "Feature", "properties": { "Country": "Germany", "Function": "1234----", "LOCODE": "DEEME", "Name": "Emden", "NameWoDiac": "Emden", "Status": "AF", "outflows": 14598.0 }, "geometry": { "type": "Point", "coordinates": [ 7.216666666666667, 53.366666666666667 ] } },
{ "type": "Feature", "properties": { "Country": "Germany", "Function": "1234----", "LOCODE": "DEKEL", "Name": "Kiel", "NameWoDiac": "Kiel", "Status": "AF", "outflows": 14040.0 }, "geometry": { "type": "Point", "coordinates": [ 10.133333333333333, 54.333333333333336 ] } },
{ "type": "Feature", "properties": { "Country": "Germany", "Function": "12345---", "LOCODE": "DERSK", "Name": "Rostock", "NameWoDiac": "Rostock", "Status": "AF", "outflows": 7984.0 }, "geometry": { "type": "Point", "coordinates": [ 12.133333333333333, 54.083333333333336 ] } },
{ "type": "Feature", "properties": { "Country": "Germany", "Function": "1234----", "LOCODE": "DEWVN", "Name": "Wilhelmshaven", "NameWoDiac": "Wilhelmshaven", "Status": "AF", "outflows": 7664957.3927999986 }, "geometry": { "type": "Point", "coordinates": [ 8.133333333333333, 53.516666666666666 ] } },
{ "type": "Feature", "properties": { "Country": "Denmark", "Function": "12345---", "LOCODE": "DKAAR", "Name": "Aarhus", "NameWoDiac": "Aarhus", "Status": "AF", "outflows": 4009844.4282799996 }, "geometry": { "type": "Point", "coordinates": [ 10.216666666666667, 56.15 ] } },
{ "type": "Feature", "properties": { "Country": "Denmark", "Function": "12345---", "LOCODE": "DKCPH", "Name": "København", "NameWoDiac": "Kobenhavn", "Status": "AF", "outflows": 138606.0 }, "geometry": { "type": "Point", "coordinates": [ 12.583333333333334, 55.666666666666664 ] } },
{ "type": "Feature", "properties": { "Country": "Dominican Republic", "Function": "1-3--6--", "LOCODE": "DOCAU", "Name": "Caucedo", "NameWoDiac": "Caucedo", "Status": "RL", "outflows": 11771542.79576 }, "geometry": { "type": "Point", "coordinates": [ -69.63333333333334, 18.416666666666668 ] } },
{ "type": "Feature", "properties": { "Country": "Dominican Republic", "Function": "123-----", "LOCODE": "DOMAN", "Name": "Manzanillo", "NameWoDiac": "Manzanillo", "Status": "RL", "outflows": 53258.4 }, "geometry": { "type": "Point", "coordinates": [ -71.75, 19.7 ] } },
{ "type": "Feature", "properties": { "Country": "Algeria", "Function": "123456--", "LOCODE": "DZALG", "Name": "Alger (Algiers)", "NameWoDiac": "Alger (Algiers)", "Status": "AI", "outflows": 835952.4 }, "geometry": { "type": "Point", "coordinates": [ 3.05, 36.75 ] } },
{ "type": "Feature", "properties": { "Country": "Algeria", "Function": "123-----", "LOCODE": "DZAZW", "Name": "Arzew", "NameWoDiac": "Arzew", "Status": "RL", "outflows": 24660.0 }, "geometry": { "type": "Point", "coordinates": [ -0.316666666666667, 35.866666666666667 ] } },
{ "type": "Feature", "properties": { "Country": "Algeria", "Function": "123-----", "LOCODE": "DZGHZ", "Name": "Ghazaouet", "NameWoDiac": "Ghazaouet", "Status": "RL", "outflows": 72735.0 }, "geometry": { "type": "Point", "coordinates": [ -1.85, 35.1 ] } },
{ "type": "Feature", "properties": { "Country": "Ecuador", "Function": "1--4----", "LOCODE": "ECESM", "Name": "Esmeraldas", "NameWoDiac": "Esmeraldas", "Status": "AI", "outflows": 153990.2 }, "geometry": { "type": "Point", "coordinates": [ -79.7, 0.983333333333333 ] } },
{ "type": "Feature", "properties": { "Country": "Ecuador", "Function": "1--45---", "LOCODE": "ECGYE", "Name": "Guayaquil", "NameWoDiac": "Guayaquil", "Status": "AI", "outflows": 8368052.2252000012 }, "geometry": { "type": "Point", "coordinates": [ -79.9, -2.166666666666667 ] } },
{ "type": "Feature", "properties": { "Country": "Ecuador", "Function": "--3--6--", "LOCODE": "ECPSJ", "Name": "Posorja", "NameWoDiac": "Posorja", "Status": "RL", "outflows": 1776250.6667999995 }, "geometry": { "type": "Point", "coordinates": [ -80.25, -2.7 ] } },
{ "type": "Feature", "properties": { "Country": "Ecuador", "Function": "1-------", "LOCODE": "ECPBO", "Name": "Puerto Bolívar", "NameWoDiac": "Puerto Bolivar", "Status": "AI", "outflows": 1601516.8 }, "geometry": { "type": "Point", "coordinates": [ -79.983333333333334, -3.266666666666667 ] } },
{ "type": "Feature", "properties": { "Country": "Estonia", "Function": "1------B", "LOCODE": "EEKND", "Name": "Kunda", "NameWoDiac": "Kunda", "Status": "AA", "outflows": 4176.0 }, "geometry": { "type": "Point", "coordinates": [ 26.533333333333335, 59.516666666666666 ] } },
{ "type": "Feature", "properties": { "Country": "Estonia", "Function": "1------B", "LOCODE": "EEMUG", "Name": "Muuga", "NameWoDiac": "Muuga", "Status": "AA", "outflows": 74880.0 }, "geometry": { "type": "Point", "coordinates": [ 24.966666666666665, 59.5 ] } },
{ "type": "Feature", "properties": { "Country": "Estonia", "Function": "-23----B", "LOCODE": "EEPLA", "Name": "Paldiski", "NameWoDiac": "Paldiski", "Status": "AA", "outflows": 90009.0 }, "geometry": { "type": "Point", "coordinates": [ 24.05, 59.35 ] } },
{ "type": "Feature", "properties": { "Country": "Estonia", "Function": "1--45---", "LOCODE": "EETLL", "Name": "Tallinn", "NameWoDiac": "Tallinn", "Status": "AI", "outflows": 493596.99998000002 }, "geometry": { "type": "Point", "coordinates": [ 24.733333333333334, 59.43333333333333 ] } },
{ "type": "Feature", "properties": { "Country": "Egypt", "Function": "1234----", "LOCODE": "EGDAM", "Name": "Dumyat (Damietta)", "NameWoDiac": "Dumyat (Damietta)", "Status": "RL", "outflows": 9993066.850010002 }, "geometry": { "type": "Point", "coordinates": [ 31.816666666666666, 31.416666666666668 ] } },
{ "type": "Feature", "properties": { "Country": "Egypt", "Function": "1--45---", "LOCODE": "EGALY", "Name": "El Iskandariya (Alexandria)", "NameWoDiac": "El Iskandariya (Alexandria)", "Status": "AI", "outflows": 6389301.2997899996 }, "geometry": { "type": "Point", "coordinates": [ 29.916666666666668, 31.183333333333334 ] } },
{ "type": "Feature", "properties": { "Country": "Egypt", "Function": "1-------", "LOCODE": "EGSOK", "Name": "Sokhna Port", "NameWoDiac": "Sokhna Port", "Status": "RQ", "outflows": 3639356.7318400005 }, "geometry": { "type": "Point", "coordinates": [ 32.35, 29.65 ] } },
{ "type": "Feature", "properties": { "Country": "Eritrea", "Function": "1234----", "LOCODE": "ERMSW", "Name": "Massawa (Mitsiwa)", "NameWoDiac": "Massawa (Mitsiwa)", "Status": "AI", "outflows": 44242.0 }, "geometry": { "type": "Point", "coordinates": [ 39.45, 15.6 ] } },
{ "type": "Feature", "properties": { "Country": "Spain", "Function": "1234----", "LOCODE": "ESLEI", "Name": "Almería", "NameWoDiac": "Almeria", "Status": "AI", "outflows": 123708.0 }, "geometry": { "type": "Point", "coordinates": [ -2.45, 36.833333333333336 ] } },
{ "type": "Feature", "properties": { "Country": "Spain", "Function": "12345---", "LOCODE": "ESBIO", "Name": "Bilbao", "NameWoDiac": "Bilbao", "Status": "AI", "outflows": 757628.79999199987 }, "geometry": { "type": "Point", "coordinates": [ -2.966666666666667, 43.25 ] } },
{ "type": "Feature", "properties": { "Country": "Spain", "Function": "123-----", "LOCODE": "ESCAR", "Name": "Cartagena", "NameWoDiac": "Cartagena", "Status": "AA", "outflows": 161718.0 }, "geometry": { "type": "Point", "coordinates": [ -0.983333333333333, 37.6 ] } },
{ "type": "Feature", "properties": { "Country": "Spain", "Function": "123-----", "LOCODE": "ESCAS", "Name": "Castellón de la Plana", "NameWoDiac": "Castellon de la Plana", "Status": "AI", "outflows": 2188540.79158 }, "geometry": { "type": "Point", "coordinates": [ -0.033333333333333, 39.983333333333334 ] } },
{ "type": "Feature", "properties": { "Country": "Spain", "Function": "123-----", "LOCODE": "ESFRO", "Name": "Ferrol", "NameWoDiac": "Ferrol", "Status": "AI", "outflows": 165064.5 }, "geometry": { "type": "Point", "coordinates": [ -8.25, 43.483333333333334 ] } },
{ "type": "Feature", "properties": { "Country": "Spain", "Function": "1234----", "LOCODE": "ESGIJ", "Name": "Gijón", "NameWoDiac": "Gijon", "Status": "AI", "outflows": 356746.0 }, "geometry": { "type": "Point", "coordinates": [ -5.666666666666667, 43.533333333333331 ] } },
{ "type": "Feature", "properties": { "Country": "Spain", "Function": "1--4----", "LOCODE": "ESACE", "Name": "Lanzarote", "NameWoDiac": "Lanzarote", "Status": "AI", "outflows": 421980.0 }, "geometry": { "type": "Point", "coordinates": [ -13.533333333333333, 28.966666666666665 ] } },
{ "type": "Feature", "properties": { "Country": "Spain", "Function": "1-3456--", "LOCODE": "ESLPA", "Name": "Las Palmas de Gran Canaria", "NameWoDiac": "Las Palmas de Gran Canaria", "Status": "AI", "outflows": 5009347.5287000006 }, "geometry": { "type": "Point", "coordinates": [ -15.416666666666666, 28.1 ] } },
{ "type": "Feature", "properties": { "Country": "Spain", "Function": "1--45---", "LOCODE": "ESAGP", "Name": "Málaga", "NameWoDiac": "Malaga", "Status": "AI", "outflows": 439868.0 }, "geometry": { "type": "Point", "coordinates": [ -4.416666666666667, 36.716666666666669 ] } },
{ "type": "Feature", "properties": { "Country": "Spain", "Function": "1-34----", "LOCODE": "ESMLN", "Name": "Melilla", "NameWoDiac": "Melilla", "Status": "AI", "outflows": 45500.0 }, "geometry": { "type": "Point", "coordinates": [ -2.883333333333333, 35.31666666666667 ] } },
{ "type": "Feature", "properties": { "Country": "Spain", "Function": "123-----", "LOCODE": "ESSAG", "Name": "Sagunto", "NameWoDiac": "Sagunto", "Status": "AI", "outflows": 417560.0 }, "geometry": { "type": "Point", "coordinates": [ -0.266666666666667, 39.68333333333333 ] } },
{ "type": "Feature", "properties": { "Country": "Spain", "Function": "1--4----", "LOCODE": "ESSPC", "Name": "Santa Cruz de La Palma", "NameWoDiac": "Santa Cruz de La Palma", "Status": "AI", "outflows": 245440.0 }, "geometry": { "type": "Point", "coordinates": [ -17.766666666666666, 28.683333333333334 ] } },
{ "type": "Feature", "properties": { "Country": "Spain", "Function": "1-3-----", "LOCODE": "ESVIL", "Name": "Villagarcía de Arosa", "NameWoDiac": "Villagarcia de Arosa", "Status": "AI", "outflows": 130988.0 }, "geometry": { "type": "Point", "coordinates": [ -8.75, 42.6 ] } },
{ "type": "Feature", "properties": { "Country": "Finland", "Function": "1-34----", "LOCODE": "FITKU", "Name": "Åbo (Turku)", "NameWoDiac": "Abo (Turku)", "Status": "AI", "outflows": 16263.0 }, "geometry": { "type": "Point", "coordinates": [ 22.283333333333335, 60.45 ] } },
{ "type": "Feature", "properties": { "Country": "Finland", "Function": "1-34----", "LOCODE": "FITKU", "Name": "Turku (Åbo)", "NameWoDiac": "Turku (Abo)", "Status": "AI", "outflows": 16263.0 }, "geometry": { "type": "Point", "coordinates": [ 22.283333333333335, 60.45 ] } },
{ "type": "Feature", "properties": { "Country": "Finland", "Function": "1-34----", "LOCODE": "FIPOR", "Name": "Björneborg (Pori)", "NameWoDiac": "Bjorneborg (Pori)", "Status": "AI", "outflows": 5220.0 }, "geometry": { "type": "Point", "coordinates": [ 21.8, 61.483333333333334 ] } },
{ "type": "Feature", "properties": { "Country": "Finland", "Function": "1-34----", "LOCODE": "FIPOR", "Name": "Pori (Björneborg)", "NameWoDiac": "Pori (Bjorneborg)", "Status": "AI", "outflows": 5220.0 }, "geometry": { "type": "Point", "coordinates": [ 21.8, 61.483333333333334 ] } },
{ "type": "Feature", "properties": { "Country": "Finland", "Function": "1-------", "LOCODE": "FIHMN", "Name": "Fredrikshamn (Hamina)", "NameWoDiac": "Fredrikshamn (Hamina)", "Status": "AI", "outflows": 4437.0 }, "geometry": { "type": "Point", "coordinates": [ 27.2, 60.56666666666667 ] } },
{ "type": "Feature", "properties": { "Country": "Finland", "Function": "1-------", "LOCODE": "FIHMN", "Name": "Hamina (Fredrikshamn)", "NameWoDiac": "Hamina (Fredrikshamn)", "Status": "AI", "outflows": 4437.0 }, "geometry": { "type": "Point", "coordinates": [ 27.2, 60.56666666666667 ] } },
{ "type": "Feature", "properties": { "Country": "Finland", "Function": "123-----", "LOCODE": "FIPRS", "Name": "Jakobstad (Pietarsaari)", "NameWoDiac": "Jakobstad (Pietarsaari)", "Status": "AI", "outflows": 9396.0 }, "geometry": { "type": "Point", "coordinates": [ 22.783333333333335, 63.68333333333333 ] } },
{ "type": "Feature", "properties": { "Country": "Finland", "Function": "123-----", "LOCODE": "FIPRS", "Name": "Pietarsaari (Jakobstad)", "NameWoDiac": "Pietarsaari (Jakobstad)", "Status": "AI", "outflows": 9396.0 }, "geometry": { "type": "Point", "coordinates": [ 22.783333333333335, 63.68333333333333 ] } },
{ "type": "Feature", "properties": { "Country": "Finland", "Function": "123-----", "LOCODE": "FIKOK", "Name": "Karleby (Kokkola)", "NameWoDiac": "Karleby (Kokkola)", "Status": "AI", "outflows": 39182.0 }, "geometry": { "type": "Point", "coordinates": [ 23.116666666666667, 63.833333333333336 ] } },
{ "type": "Feature", "properties": { "Country": "Finland", "Function": "123-----", "LOCODE": "FIKOK", "Name": "Kokkola (Karleby)", "NameWoDiac": "Kokkola (Karleby)", "Status": "AI", "outflows": 39182.0 }, "geometry": { "type": "Point", "coordinates": [ 23.116666666666667, 63.833333333333336 ] } },
{ "type": "Feature", "properties": { "Country": "Finland", "Function": "1-34----", "LOCODE": "FIKEM", "Name": "Kemi\/Torneå (Kemi\/Tornio)", "NameWoDiac": "Kemi\/Tornea (Kemi\/Tornio)", "Status": "AI", "outflows": 106574.0 }, "geometry": { "type": "Point", "coordinates": [ 24.566666666666666, 65.733333333333334 ] } },
{ "type": "Feature", "properties": { "Country": "Finland", "Function": "1-34----", "LOCODE": "FIKEM", "Name": "Kemi\/Tornio (Kemi\/Torneå)", "NameWoDiac": "Kemi\/Tornio (Kemi\/Tornea)", "Status": "AI", "outflows": 106574.0 }, "geometry": { "type": "Point", "coordinates": [ 24.566666666666666, 65.733333333333334 ] } },
{ "type": "Feature", "properties": { "Country": "Finland", "Function": "123----B", "LOCODE": "FIKTK", "Name": "Kotka", "NameWoDiac": "Kotka", "Status": "AC", "outflows": 1116795.4999200001 }, "geometry": { "type": "Point", "coordinates": [ 26.916666666666668, 60.466666666666669 ] } },
{ "type": "Feature", "properties": { "Country": "Finland", "Function": "123----B", "LOCODE": "FIRAU", "Name": "Rauma (Raumo)", "NameWoDiac": "Rauma (Raumo)", "Status": "AC", "outflows": 705561.49998000008 }, "geometry": { "type": "Point", "coordinates": [ 21.5, 61.133333333333333 ] } },
{ "type": "Feature", "properties": { "Country": "Finland", "Function": "123----B", "LOCODE": "FIRAU", "Name": "Raumo (Rauma)", "NameWoDiac": "Raumo (Rauma)", "Status": "AC", "outflows": 705561.49998000008 }, "geometry": { "type": "Point", "coordinates": [ 21.5, 61.133333333333333 ] } },
{ "type": "Feature", "properties": { "Country": "Finland", "Function": "1-------", "LOCODE": "FITOR", "Name": "Torneå (Tornio)", "NameWoDiac": "Tornea (Tornio)", "Status": "AI", "outflows": 91624.0 }, "geometry": { "type": "Point", "coordinates": [ 24.183333333333334, 65.85 ] } },
{ "type": "Feature", "properties": { "Country": "Finland", "Function": "1-------", "LOCODE": "FITOR", "Name": "Tornio (Torneå)", "NameWoDiac": "Tornio (Tornea)", "Status": "AI", "outflows": 91624.0 }, "geometry": { "type": "Point", "coordinates": [ 24.183333333333334, 65.85 ] } },
{ "type": "Feature", "properties": { "Country": "Fiji", "Function": "123-----", "LOCODE": "FJLTK", "Name": "Lautoka", "NameWoDiac": "Lautoka", "Status": "RL", "outflows": 490393.0 }, "geometry": { "type": "Point", "coordinates": [ 177.45, -17.616666666666667 ] } },
{ "type": "Feature", "properties": { "Country": "Fiji", "Function": "1--45---", "LOCODE": "FJSUV", "Name": "Suva", "NameWoDiac": "Suva", "Status": "AI", "outflows": 535295.0 }, "geometry": { "type": "Point", "coordinates": [ 178.45, -18.133333333333333 ] } },
{ "type": "Feature", "properties": { "Country": "Faroe Islands", "Function": "1-3-----", "LOCODE": "FOKOL", "Name": "Kollafjördur", "NameWoDiac": "Kollafjordur", "Status": "RL", "outflows": 82628.0 }, "geometry": { "type": "Point", "coordinates": [ -6.883333333333333, 62.116666666666667 ] } },
{ "type": "Feature", "properties": { "Country": "Faroe Islands", "Function": "1-------", "LOCODE": "FOTHO", "Name": "Thorshavn", "NameWoDiac": "Thorshavn", "Status": "RL", "outflows": 91104.0 }, "geometry": { "type": "Point", "coordinates": [ -6.766666666666667, 62.016666666666666 ] } },
{ "type": "Feature", "properties": { "Country": "France", "Function": "12------", "LOCODE": "FRBAS", "Name": "Bassens", "NameWoDiac": "Bassens", "Status": "AF", "outflows": 33930.0 }, "geometry": { "type": "Point", "coordinates": [ -0.516666666666667, 44.9 ] } },
{ "type": "Feature", "properties": { "Country": "France", "Function": "1234----", "LOCODE": "FRBES", "Name": "Brest", "NameWoDiac": "Brest", "Status": "AF", "outflows": 107185.0 }, "geometry": { "type": "Point", "coordinates": [ -4.483333333333333, 48.4 ] } },
{ "type": "Feature", "properties": { "Country": "France", "Function": "12--5---", "LOCODE": "FRDKK", "Name": "Dunkerque", "NameWoDiac": "Dunkerque", "Status": "AF", "outflows": 4450642.0836299993 }, "geometry": { "type": "Point", "coordinates": [ 2.383333333333333, 51.033333333333331 ] } },
{ "type": "Feature", "properties": { "Country": "France", "Function": "123---7-", "LOCODE": "FRFOS", "Name": "Fos-sur-Mer", "NameWoDiac": "Fos-sur-Mer", "Status": "AF", "outflows": 18248513.215530016 }, "geometry": { "type": "Point", "coordinates": [ 4.933333333333334, 43.43333333333333 ] } },
{ "type": "Feature", "properties": { "Country": "France", "Function": "1-------", "LOCODE": "FRLPE", "Name": "la Pallice", "NameWoDiac": "la Pallice", "Status": "AF", "outflows": 22725.0 }, "geometry": { "type": "Point", "coordinates": [ -1.216666666666667, 46.166666666666664 ] } },
{ "type": "Feature", "properties": { "Country": "France", "Function": "12-4----", "LOCODE": "FRLRH", "Name": "La Rochelle", "NameWoDiac": "La Rochelle", "Status": "AF", "outflows": 33930.0 }, "geometry": { "type": "Point", "coordinates": [ -1.15, 46.166666666666664 ] } },
{ "type": "Feature", "properties": { "Country": "France", "Function": "12345---", "LOCODE": "FRLEH", "Name": "Le Havre", "NameWoDiac": "Le Havre", "Status": "AF", "outflows": 35976285.665610015 }, "geometry": { "type": "Point", "coordinates": [ 0.1, 49.5 ] } },
{ "type": "Feature", "properties": { "Country": "France", "Function": "12-45---", "LOCODE": "FRMRS", "Name": "Marseille", "NameWoDiac": "Marseille", "Status": "AF", "outflows": 629024.0 }, "geometry": { "type": "Point", "coordinates": [ 5.4, 43.3 ] } },
{ "type": "Feature", "properties": { "Country": "France", "Function": "123-----", "LOCODE": "FRMTX", "Name": "Montoir-de-Bretagne", "NameWoDiac": "Montoir-de-Bretagne", "Status": "AF", "outflows": 1130547.1665700004 }, "geometry": { "type": "Point", "coordinates": [ -2.15, 47.333333333333336 ] } },
{ "type": "Feature", "properties": { "Country": "France", "Function": "12------", "LOCODE": "FRPOV", "Name": "Port-Vendres", "NameWoDiac": "Port-Vendres", "Status": "AF", "outflows": 21450.0 }, "geometry": { "type": "Point", "coordinates": [ 3.116666666666667, 42.516666666666666 ] } },
{ "type": "Feature", "properties": { "Country": "France", "Function": "1-3-----", "LOCODE": "FRRAD", "Name": "Radicatel", "NameWoDiac": "Radicatel", "Status": "RL", "outflows": 42900.000003000001 }, "geometry": { "type": "Point", "coordinates": [ 0.5, 49.5 ] } },
{ "type": "Feature", "properties": { "Country": "France", "Function": "1-34----", "LOCODE": "FRURO", "Name": "Rouen", "NameWoDiac": "Rouen", "Status": "AF", "outflows": 34842.0 }, "geometry": { "type": "Point", "coordinates": [ 1.1, 49.45 ] } },
{ "type": "Feature", "properties": { "Country": "France", "Function": "123-----", "LOCODE": "FRSET", "Name": "Sète", "NameWoDiac": "Sete", "Status": "AF", "outflows": 34041.0 }, "geometry": { "type": "Point", "coordinates": [ 3.7, 43.4 ] } },
{ "type": "Feature", "properties": { "Country": "France", "Function": "12-4----", "LOCODE": "FRTLN", "Name": "Toulon", "NameWoDiac": "Toulon", "Status": "AF", "outflows": 1080.0 }, "geometry": { "type": "Point", "coordinates": [ 5.933333333333334, 43.116666666666667 ] } },
{ "type": "Feature", "properties": { "Country": "United Kingdom", "Function": "1--4----", "LOCODE": "GBABD", "Name": "Aberdeen", "NameWoDiac": "Aberdeen", "Status": "AF", "outflows": 48681.0 }, "geometry": { "type": "Point", "coordinates": [ -2.1, 57.133333333333333 ] } },
{ "type": "Feature", "properties": { "Country": "United Kingdom", "Function": "1--4-6--", "LOCODE": "GBBEL", "Name": "Belfast", "NameWoDiac": "Belfast", "Status": "AF", "outflows": 137826.0 }, "geometry": { "type": "Point", "coordinates": [ -5.916666666666667, 54.983333333333334 ] } },
{ "type": "Feature", "properties": { "Country": "United Kingdom", "Function": "1-------", "LOCODE": "GBGRG", "Name": "Grangemouth", "NameWoDiac": "Grangemouth", "Status": "AF", "outflows": 192244.0 }, "geometry": { "type": "Point", "coordinates": [ -3.716666666666667, 56.0 ] } },
{ "type": "Feature", "properties": { "Country": "United Kingdom", "Function": "1-------", "LOCODE": "GBGRK", "Name": "Greenock", "NameWoDiac": "Greenock", "Status": "AF", "outflows": 275567.66664999997 }, "geometry": { "type": "Point", "coordinates": [ -4.75, 55.93333333333333 ] } },
{ "type": "Feature", "properties": { "Country": "United Kingdom", "Function": "1-------", "LOCODE": "GBHUL", "Name": "Hull", "NameWoDiac": "Hull", "Status": "AF", "outflows": 219740.33333800005 }, "geometry": { "type": "Point", "coordinates": [ -0.316666666666667, 53.733333333333334 ] } },
{ "type": "Feature", "properties": { "Country": "United Kingdom", "Function": "1-------", "LOCODE": "GBIMM", "Name": "Immingham", "NameWoDiac": "Immingham", "Status": "AF", "outflows": 329625.0 }, "geometry": { "type": "Point", "coordinates": [ -0.216666666666667, 53.6 ] } },
{ "type": "Feature", "properties": { "Country": "United Kingdom", "Function": "1--4----", "LOCODE": "GBLIV", "Name": "Liverpool", "NameWoDiac": "Liverpool", "Status": "AF", "outflows": 1673890.2916200003 }, "geometry": { "type": "Point", "coordinates": [ -3.0, 53.416666666666664 ] } },
{ "type": "Feature", "properties": { "Country": "United Kingdom", "Function": "123--6--", "LOCODE": "GBLGP", "Name": "London Gateway Port", "NameWoDiac": "London Gateway Port", "Status": "RL", "outflows": 21704403.092420008 }, "geometry": { "type": "Point", "coordinates": [ 0.483333333333333, 51.5 ] } },
{ "type": "Feature", "properties": { "Country": "United Kingdom", "Function": "1-------", "LOCODE": "GBTEE", "Name": "Teesport", "NameWoDiac": "Teesport", "Status": "AF", "outflows": 556920.0 }, "geometry": { "type": "Point", "coordinates": [ -1.15, 54.583333333333336 ] } },
{ "type": "Feature", "properties": { "Country": "United Kingdom", "Function": "1-------", "LOCODE": "GBTYN", "Name": "Tyne", "NameWoDiac": "Tyne", "Status": "RQ", "outflows": 31668.0 }, "geometry": { "type": "Point", "coordinates": [ -1.433333333333333, 55.0 ] } },
{ "type": "Feature", "properties": { "Country": "French Guiana", "Function": "1-------", "LOCODE": "GFDDC", "Name": "Dégrad des Cannes", "NameWoDiac": "Degrad des Cannes", "Status": "RL", "outflows": 286520.0 }, "geometry": { "type": "Point", "coordinates": [ -52.266666666666666, 4.85 ] } },
{ "type": "Feature", "properties": { "Country": "Greenland", "Function": "1-34----", "LOCODE": "GLGOH", "Name": "Nuuk (Godthaab)", "NameWoDiac": "Nuuk (Godthaab)", "Status": "AI", "outflows": 23426.0 }, "geometry": { "type": "Point", "coordinates": [ -51.75, 64.183333333333337 ] } },
{ "type": "Feature", "properties": { "Country": "Guadeloupe", "Function": "1--45---", "LOCODE": "GPPTP", "Name": "Point-à-Pitre Apt", "NameWoDiac": "Point-a-Pitre Apt", "Status": "AF", "outflows": 1970512.9165490004 }, "geometry": { "type": "Point", "coordinates": [ -61.516666666666666, 16.266666666666666 ] } },
{ "type": "Feature", "properties": { "Country": "Greece", "Function": "1--4----", "LOCODE": "GRHER", "Name": "Heraklion (Iraklion)", "NameWoDiac": "Heraklion (Iraklion)", "Status": "AI", "outflows": 23582.0 }, "geometry": { "type": "Point", "coordinates": [ 25.166666666666668, 35.333333333333336 ] } },
{ "type": "Feature", "properties": { "Country": "Greece", "Function": "1--4----", "LOCODE": "GRHER", "Name": "Iraklion (Heraklion)", "NameWoDiac": "Iraklion (Heraklion)", "Status": "AI", "outflows": 23582.0 }, "geometry": { "type": "Point", "coordinates": [ 25.166666666666668, 35.333333333333336 ] } },
{ "type": "Feature", "properties": { "Country": "Greece", "Function": "1-------", "LOCODE": "GRPIR", "Name": "Piraeus", "NameWoDiac": "Piraeus", "Status": "AI", "outflows": 25227137.508840002 }, "geometry": { "type": "Point", "coordinates": [ 23.616666666666667, 37.93333333333333 ] } },
{ "type": "Feature", "properties": { "Country": "Greece", "Function": "1--45---", "LOCODE": "GRSKG", "Name": "Thessaloníki", "NameWoDiac": "Thessaloniki", "Status": "AI", "outflows": 790815.99999000016 }, "geometry": { "type": "Point", "coordinates": [ 22.95, 40.633333333333333 ] } },
{ "type": "Feature", "properties": { "Country": "Greece", "Function": "1--4----", "LOCODE": "GRVOL", "Name": "Vólos", "NameWoDiac": "Volos", "Status": "AI", "outflows": 23582.0 }, "geometry": { "type": "Point", "coordinates": [ 22.95, 39.366666666666667 ] } },
{ "type": "Feature", "properties": { "Country": "Guatemala", "Function": "1-------", "LOCODE": "GTSTC", "Name": "Puerto Santo Tomás de Castilla", "NameWoDiac": "Puerto Santo Tomas de Castilla", "Status": "AI", "outflows": 1241734.0000599998 }, "geometry": { "type": "Point", "coordinates": [ -88.61666666666666, 15.7 ] } },
{ "type": "Feature", "properties": { "Country": "Guam", "Function": "--3-----", "LOCODE": "GUPIT", "Name": "Piti", "NameWoDiac": "Piti", "Status": "RL", "outflows": 52903.5 }, "geometry": { "type": "Point", "coordinates": [ 144.683333333333337, 13.433333333333334 ] } },
{ "type": "Feature", "properties": { "Country": "Guinea-Bissau", "Function": "1-345---", "LOCODE": "GWOXB", "Name": "Bissau", "NameWoDiac": "Bissau", "Status": "AI", "outflows": 114309.0 }, "geometry": { "type": "Point", "coordinates": [ -15.583333333333334, 11.85 ] } },
{ "type": "Feature", "properties": { "Country": "Croatia", "Function": "123-----", "LOCODE": "HRPLE", "Name": "Ploce", "NameWoDiac": "Ploce", "Status": "RL", "outflows": 136773.0 }, "geometry": { "type": "Point", "coordinates": [ 17.433333333333334, 43.05 ] } },
{ "type": "Feature", "properties": { "Country": "Croatia", "Function": "1234----", "LOCODE": "HRRJK", "Name": "Rijeka", "NameWoDiac": "Rijeka", "Status": "AI", "outflows": 3818455.3333799997 }, "geometry": { "type": "Point", "coordinates": [ 14.4, 45.333333333333336 ] } },
{ "type": "Feature", "properties": { "Country": "Croatia", "Function": "1234----", "LOCODE": "HRSPU", "Name": "Split", "NameWoDiac": "Split", "Status": "AI", "outflows": 63609.0 }, "geometry": { "type": "Point", "coordinates": [ 16.45, 43.5 ] } },
{ "type": "Feature", "properties": { "Country": "Haiti", "Function": "1--4----", "LOCODE": "HTCAP", "Name": "Cap-Haïtien", "NameWoDiac": "Cap-Haitien", "Status": "AI", "outflows": 47268.0 }, "geometry": { "type": "Point", "coordinates": [ -72.2, 19.75 ] } },
{ "type": "Feature", "properties": { "Country": "Haiti", "Function": "1-------", "LOCODE": "HTLFF", "Name": "Lafiteau", "NameWoDiac": "Lafiteau", "Status": "AI", "outflows": 1098127.3333000003 }, "geometry": { "type": "Point", "coordinates": [ -72.433333333333337, 18.483333333333334 ] } },
{ "type": "Feature", "properties": { "Country": "Indonesia", "Function": "1--4----", "LOCODE": "IDBPN", "Name": "Balikpapan", "NameWoDiac": "Balikpapan", "Status": "AI", "outflows": 77320.75 }, "geometry": { "type": "Point", "coordinates": [ 116.833333333333329, -1.283333333333333 ] } },
{ "type": "Feature", "properties": { "Country": "Indonesia", "Function": "1-3-----", "LOCODE": "IDBTM", "Name": "Batam Island", "NameWoDiac": "Batam Island", "Status": "RL", "outflows": 7335.5 }, "geometry": { "type": "Point", "coordinates": [ 104.033333333333331, 1.083333333333333 ] } },
{ "type": "Feature", "properties": { "Country": "Indonesia", "Function": "1-------", "LOCODE": "IDBEN", "Name": "Benete", "NameWoDiac": "Benete", "Status": "RL", "outflows": 12681.75 }, "geometry": { "type": "Point", "coordinates": [ 116.716666666666669, -8.866666666666667 ] } },
{ "type": "Feature", "properties": { "Country": "Indonesia", "Function": "1-------", "LOCODE": "IDBOA", "Name": "Benoa", "NameWoDiac": "Benoa", "Status": "RL", "outflows": 6747.0 }, "geometry": { "type": "Point", "coordinates": [ 115.216666666666669, -8.766666666666667 ] } },
{ "type": "Feature", "properties": { "Country": "Indonesia", "Function": "12345---", "LOCODE": "IDJKT", "Name": "Jakarta, Java", "NameWoDiac": "Jakarta, Java", "Status": "AI", "outflows": 12060454.992969999 }, "geometry": { "type": "Point", "coordinates": [ 106.833333333333329, -6.133333333333334 ] } },
{ "type": "Feature", "properties": { "Country": "Indonesia", "Function": "1-345---", "LOCODE": "IDDJJ", "Name": "Jayapura, Irian Jaya", "NameWoDiac": "Jayapura, Irian Jaya", "Status": "AI", "outflows": 136162.0 }, "geometry": { "type": "Point", "coordinates": [ 140.7, -2.533333333333333 ] } },
{ "type": "Feature", "properties": { "Country": "Indonesia", "Function": "1-3-----", "LOCODE": "IDKUM", "Name": "Kumai", "NameWoDiac": "Kumai", "Status": "RL", "outflows": 4238.0 }, "geometry": { "type": "Point", "coordinates": [ 111.716666666666669, -2.733333333333333 ] } },
{ "type": "Feature", "properties": { "Country": "Indonesia", "Function": "1-3-----", "LOCODE": "IDMAK", "Name": "Makassar", "NameWoDiac": "Makassar", "Status": "RL", "outflows": 664450.0 }, "geometry": { "type": "Point", "coordinates": [ 119.4, -5.116666666666666 ] } },
{ "type": "Feature", "properties": { "Country": "Indonesia", "Function": "1234----", "LOCODE": "IDPDG", "Name": "Padang", "NameWoDiac": "Padang", "Status": "AI", "outflows": 74470.25 }, "geometry": { "type": "Point", "coordinates": [ 100.35, -0.95 ] } },
{ "type": "Feature", "properties": { "Country": "Indonesia", "Function": "1-3-----", "LOCODE": "IDPER", "Name": "Perawang", "NameWoDiac": "Perawang", "Status": "RL", "outflows": 3627.0 }, "geometry": { "type": "Point", "coordinates": [ 102.86666666666666, 1.066666666666667 ] } },
{ "type": "Feature", "properties": { "Country": "Indonesia", "Function": "1-345---", "LOCODE": "IDSRG", "Name": "Semarang", "NameWoDiac": "Semarang", "Status": "AI", "outflows": 2529727.4165999996 }, "geometry": { "type": "Point", "coordinates": [ 110.483333333333334, -6.966666666666667 ] } },
{ "type": "Feature", "properties": { "Country": "Indonesia", "Function": "123456--", "LOCODE": "IDSUB", "Name": "Surabaya", "NameWoDiac": "Surabaya", "Status": "AI", "outflows": 5004081.1427500024 }, "geometry": { "type": "Point", "coordinates": [ 112.75, -7.233333333333333 ] } },
{ "type": "Feature", "properties": { "Country": "Indonesia", "Function": "1--4----", "LOCODE": "IDTNJ", "Name": "Tanjungpinang", "NameWoDiac": "Tanjungpinang", "Status": "AI", "outflows": 3068.0 }, "geometry": { "type": "Point", "coordinates": [ 104.45, 0.916666666666667 ] } },
{ "type": "Feature", "properties": { "Country": "Indonesia", "Function": "1-------", "LOCODE": "IDTMK", "Name": "Timika", "NameWoDiac": "Timika", "Status": "RQ", "outflows": 3240.0 }, "geometry": { "type": "Point", "coordinates": [ 136.55, -4.75 ] } },
{ "type": "Feature", "properties": { "Country": "Indonesia", "Function": "1-------", "LOCODE": "IDTUA", "Name": "Tual", "NameWoDiac": "Tual", "Status": "RQ", "outflows": 12207.0 }, "geometry": { "type": "Point", "coordinates": [ 132.73333333333332, -5.633333333333333 ] } },
{ "type": "Feature", "properties": { "Country": "Ireland", "Function": "1-345---", "LOCODE": "IEWAT", "Name": "Waterford", "NameWoDiac": "Waterford", "Status": "AF", "outflows": 86515.0 }, "geometry": { "type": "Point", "coordinates": [ -7.1, 52.25 ] } },
{ "type": "Feature", "properties": { "Country": "Israel", "Function": "1--45---", "LOCODE": "ILHFA", "Name": "Haifa", "NameWoDiac": "Haifa", "Status": "AI", "outflows": 8470527.0681299977 }, "geometry": { "type": "Point", "coordinates": [ 34.983333333333334, 32.8 ] } },
{ "type": "Feature", "properties": { "Country": "India", "Function": "12345---", "LOCODE": "INMAA", "Name": "Chennai (ex Madras)", "NameWoDiac": "Chennai (ex Madras)", "Status": "AA", "outflows": 2818763.3167999992 }, "geometry": { "type": "Point", "coordinates": [ 80.283333333333331, 13.083333333333334 ] } },
{ "type": "Feature", "properties": { "Country": "India", "Function": "1234-6--", "LOCODE": "INCOK", "Name": "Cochin", "NameWoDiac": "Cochin", "Status": "AA", "outflows": 2453568.0832799999 }, "geometry": { "type": "Point", "coordinates": [ 76.233333333333334, 9.966666666666667 ] } },
{ "type": "Feature", "properties": { "Country": "India", "Function": "--3--6--", "LOCODE": "INHZR", "Name": "Hazira", "NameWoDiac": "Hazira", "Status": "RL", "outflows": 5911162.5861400003 }, "geometry": { "type": "Point", "coordinates": [ 72.62343557464672, 21.09641041428134 ] } },
{ "type": "Feature", "properties": { "Country": "India", "Function": "1234-6--", "LOCODE": "INIXY", "Name": "Kandla", "NameWoDiac": "Kandla", "Status": "AA", "outflows": 817280.5 }, "geometry": { "type": "Point", "coordinates": [ 70.216666666666669, 23.033333333333335 ] } },
{ "type": "Feature", "properties": { "Country": "India", "Function": "123-----", "LOCODE": "INKTP", "Name": "Kattupalli Port", "NameWoDiac": "Kattupalli Port", "Status": "RL", "outflows": 1964901.8999300003 }, "geometry": { "type": "Point", "coordinates": [ 80.38333333333334, 13.3 ] } },
{ "type": "Feature", "properties": { "Country": "India", "Function": "1--45---", "LOCODE": "INCCU", "Name": "Kolkata (ex Calcutta)", "NameWoDiac": "Kolkata (ex Calcutta)", "Status": "AA", "outflows": 303853.53334000002 }, "geometry": { "type": "Point", "coordinates": [ 88.35, 22.566666666666666 ] } },
{ "type": "Feature", "properties": { "Country": "India", "Function": "123-----", "LOCODE": "INMRM", "Name": "Marmagao (Marmugao)", "NameWoDiac": "Marmagao (Marmugao)", "Status": "AA", "outflows": 100178.0 }, "geometry": { "type": "Point", "coordinates": [ 73.783333333333331, 15.4 ] } },
{ "type": "Feature", "properties": { "Country": "India", "Function": "123-----", "LOCODE": "INMRM", "Name": "Marmugao (Marmagao)", "NameWoDiac": "Marmugao (Marmagao)", "Status": "AA", "outflows": 100178.0 }, "geometry": { "type": "Point", "coordinates": [ 73.783333333333331, 15.4 ] } },
{ "type": "Feature", "properties": { "Country": "India", "Function": "123456--", "LOCODE": "INBOM", "Name": "Mumbai (ex Bombay)", "NameWoDiac": "Mumbai (ex Bombay)", "Status": "AA", "outflows": 126915.25 }, "geometry": { "type": "Point", "coordinates": [ 72.816666666666663, 18.966666666666665 ] } },
{ "type": "Feature", "properties": { "Country": "India", "Function": "123-----", "LOCODE": "INPRT", "Name": "Paradip Garh", "NameWoDiac": "Paradip Garh", "Status": "AA", "outflows": 28080.0 }, "geometry": { "type": "Point", "coordinates": [ 86.61666666666666, 20.316666666666666 ] } },
{ "type": "Feature", "properties": { "Country": "India", "Function": "123-----", "LOCODE": "INPAV", "Name": "Pipavav (Victor) Port", "NameWoDiac": "Pipavav (Victor) Port", "Status": "AA", "outflows": 6333654.3638700033 }, "geometry": { "type": "Point", "coordinates": [ 71.55, 20.966666666666665 ] } },
{ "type": "Feature", "properties": { "Country": "India", "Function": "123--6--", "LOCODE": "INTUT", "Name": "Tuticorin", "NameWoDiac": "Tuticorin", "Status": "AA", "outflows": 1224891.0 }, "geometry": { "type": "Point", "coordinates": [ 78.13333333333334, 8.783333333333333 ] } },
{ "type": "Feature", "properties": { "Country": "India", "Function": "1234-6--", "LOCODE": "INVTZ", "Name": "Visakhapatnam", "NameWoDiac": "Visakhapatnam", "Status": "AA", "outflows": 2172514.4999899995 }, "geometry": { "type": "Point", "coordinates": [ 83.3, 17.7 ] } },
{ "type": "Feature", "properties": { "Country": "Iraq", "Function": "123-----", "LOCODE": "IQUQR", "Name": "Umm Qasr Port", "NameWoDiac": "Umm Qasr Port", "Status": "RL", "outflows": 3640547.5715799998 }, "geometry": { "type": "Point", "coordinates": [ 47.93333333333333, 30.033333333333335 ] } },
{ "type": "Feature", "properties": { "Country": "Iran, Islamic Republic of", "Function": "1-3-----", "LOCODE": "IRASA", "Name": "Asaluyeh", "NameWoDiac": "Asaluyeh", "Status": "RL", "outflows": 3060.0 }, "geometry": { "type": "Point", "coordinates": [ 52.6, 27.466666666666665 ] } },
{ "type": "Feature", "properties": { "Country": "Iran, Islamic Republic of", "Function": "1--4----", "LOCODE": "IRBND", "Name": "Bandar Abbas", "NameWoDiac": "Bandar Abbas", "Status": "AI", "outflows": 1154182.75 }, "geometry": { "type": "Point", "coordinates": [ 56.266666666666666, 27.183333333333334 ] } },
{ "type": "Feature", "properties": { "Country": "Iran, Islamic Republic of", "Function": "1-34----", "LOCODE": "IRBKM", "Name": "Bandar Khomeini", "NameWoDiac": "Bandar Khomeini", "Status": "RL", "outflows": 85644.0 }, "geometry": { "type": "Point", "coordinates": [ 49.1, 30.433333333333334 ] } },
{ "type": "Feature", "properties": { "Country": "Iran, Islamic Republic of", "Function": "1-34----", "LOCODE": "IRBUZ", "Name": "Bushehr", "NameWoDiac": "Bushehr", "Status": "AI", "outflows": 85644.0 }, "geometry": { "type": "Point", "coordinates": [ 50.833333333333336, 28.966666666666665 ] } },
{ "type": "Feature", "properties": { "Country": "Iceland", "Function": "1-------", "LOCODE": "ISREY", "Name": "Reykjavík", "NameWoDiac": "Reykjavik", "Status": "AC", "outflows": 327138.50000099995 }, "geometry": { "type": "Point", "coordinates": [ -21.95, 64.15 ] } },
{ "type": "Feature", "properties": { "Country": "Italy", "Function": "1-34----", "LOCODE": "ITAOI", "Name": "Ancona", "NameWoDiac": "Ancona", "Status": "AI", "outflows": 1251219.6666600001 }, "geometry": { "type": "Point", "coordinates": [ 13.5, 43.633333333333333 ] } },
{ "type": "Feature", "properties": { "Country": "Italy", "Function": "1-34----", "LOCODE": "ITBRI", "Name": "Bari", "NameWoDiac": "Bari", "Status": "AI", "outflows": 123851.0 }, "geometry": { "type": "Point", "coordinates": [ 16.85, 41.133333333333333 ] } },
{ "type": "Feature", "properties": { "Country": "Italy", "Function": "1-34----", "LOCODE": "ITCAG", "Name": "Cagliari", "NameWoDiac": "Cagliari", "Status": "AI", "outflows": 61347.0 }, "geometry": { "type": "Point", "coordinates": [ 9.116666666666667, 39.216666666666669 ] } },
{ "type": "Feature", "properties": { "Country": "Italy", "Function": "1-------", "LOCODE": "ITCTA", "Name": "Catania", "NameWoDiac": "Catania", "Status": "AI", "outflows": 112515.0 }, "geometry": { "type": "Point", "coordinates": [ 15.1, 37.5 ] } },
{ "type": "Feature", "properties": { "Country": "Italy", "Function": "1-------", "LOCODE": "ITCVV", "Name": "Civitavecchia", "NameWoDiac": "Civitavecchia", "Status": "AI", "outflows": 2179445.6662 }, "geometry": { "type": "Point", "coordinates": [ 11.8, 42.1 ] } },
{ "type": "Feature", "properties": { "Country": "Italy", "Function": "12345---", "LOCODE": "ITGOA", "Name": "Genova", "NameWoDiac": "Genova", "Status": "AI", "outflows": 23896971.132049996 }, "geometry": { "type": "Point", "coordinates": [ 8.95, 44.416666666666664 ] } },
{ "type": "Feature", "properties": { "Country": "Italy", "Function": "1-------", "LOCODE": "ITGIT", "Name": "Gioia Tauro", "NameWoDiac": "Gioia Tauro", "Status": "AI", "outflows": 16628557.647730002 }, "geometry": { "type": "Point", "coordinates": [ 15.9, 38.416666666666664 ] } },
{ "type": "Feature", "properties": { "Country": "Italy", "Function": "1-------", "LOCODE": "ITSPE", "Name": "La Spezia", "NameWoDiac": "La Spezia", "Status": "AI", "outflows": 12785874.433700003 }, "geometry": { "type": "Point", "coordinates": [ 9.833333333333334, 44.116666666666667 ] } },
{ "type": "Feature", "properties": { "Country": "Italy", "Function": "1-------", "LOCODE": "ITLIV", "Name": "Livorno", "NameWoDiac": "Livorno", "Status": "AI", "outflows": 8253720.2853500005 }, "geometry": { "type": "Point", "coordinates": [ 10.316666666666666, 43.55 ] } },
{ "type": "Feature", "properties": { "Country": "Italy", "Function": "1234----", "LOCODE": "ITNAP", "Name": "Napoli", "NameWoDiac": "Napoli", "Status": "AI", "outflows": 4010591.4281000006 }, "geometry": { "type": "Point", "coordinates": [ 14.25, 40.833333333333336 ] } },
{ "type": "Feature", "properties": { "Country": "Italy", "Function": "1234----", "LOCODE": "ITOLB", "Name": "Olbia", "NameWoDiac": "Olbia", "Status": "RL", "outflows": 11076.0 }, "geometry": { "type": "Point", "coordinates": [ 9.516666666666667, 40.916666666666664 ] } },
{ "type": "Feature", "properties": { "Country": "Italy", "Function": "1--4----", "LOCODE": "ITPMO", "Name": "Palermo", "NameWoDiac": "Palermo", "Status": "AI", "outflows": 35997.0 }, "geometry": { "type": "Point", "coordinates": [ 13.366666666666667, 38.116666666666667 ] } },
{ "type": "Feature", "properties": { "Country": "Italy", "Function": "123-----", "LOCODE": "ITSVN", "Name": "Savona", "NameWoDiac": "Savona", "Status": "AI", "outflows": 43661.0 }, "geometry": { "type": "Point", "coordinates": [ 8.5, 44.283333333333331 ] } },
{ "type": "Feature", "properties": { "Country": "Italy", "Function": "1--4----", "LOCODE": "ITTPS", "Name": "Trapani", "NameWoDiac": "Trapani", "Status": "AI", "outflows": 41808.0 }, "geometry": { "type": "Point", "coordinates": [ 12.483333333333333, 38.016666666666666 ] } },
{ "type": "Feature", "properties": { "Country": "Italy", "Function": "123-----", "LOCODE": "ITVDL", "Name": "Vado Ligure", "NameWoDiac": "Vado Ligure", "Status": "RL", "outflows": 1281768.42842 }, "geometry": { "type": "Point", "coordinates": [ 8.45, 44.266666666666666 ] } },
{ "type": "Feature", "properties": { "Country": "Italy", "Function": "12345--B", "LOCODE": "ITVCE", "Name": "Venezia", "NameWoDiac": "Venezia", "Status": "AI", "outflows": 1408195.6666600001 }, "geometry": { "type": "Point", "coordinates": [ 12.333333333333334, 45.43333333333333 ] } },
{ "type": "Feature", "properties": { "Country": "Jordan", "Function": "1--4----", "LOCODE": "JOAQJ", "Name": "Al 'Aqabah", "NameWoDiac": "Al 'Aqabah", "Status": "RL", "outflows": 5019094.2318399996 }, "geometry": { "type": "Point", "coordinates": [ 35.0, 29.533333333333335 ] } },
{ "type": "Feature", "properties": { "Country": "Japan", "Function": "--3-----", "LOCODE": "JPHTD", "Name": "Hakata", "NameWoDiac": "Hakata", "Status": "RL", "outflows": 3054288.2499700007 }, "geometry": { "type": "Point", "coordinates": [ 133.1, 34.18333333333333 ] } },
{ "type": "Feature", "properties": { "Country": "Japan", "Function": "--3-----", "LOCODE": "JPISS", "Name": "Isa", "NameWoDiac": "Isa", "Status": "AF", "outflows": 362101.99997 }, "geometry": { "type": "Point", "coordinates": [ 130.6, 32.05 ] } },
{ "type": "Feature", "properties": { "Country": "Japan", "Function": "12345---", "LOCODE": "JPKKJ", "Name": "Kitakyushu", "NameWoDiac": "Kitakyushu", "Status": "AF", "outflows": 476762.0 }, "geometry": { "type": "Point", "coordinates": [ 130.833333333333343, 33.833333333333336 ] } },
{ "type": "Feature", "properties": { "Country": "Japan", "Function": "12345---", "LOCODE": "JPUKB", "Name": "Kobe", "NameWoDiac": "Kobe", "Status": "AF", "outflows": 16494507.892490005 }, "geometry": { "type": "Point", "coordinates": [ 135.166666666666657, 34.68333333333333 ] } },
{ "type": "Feature", "properties": { "Country": "Japan", "Function": "123-----", "LOCODE": "JPMJR", "Name": "Mitajiri", "NameWoDiac": "Mitajiri", "Status": "AF", "outflows": 18720.0 }, "geometry": { "type": "Point", "coordinates": [ 131.583333333333343, 34.033333333333331 ] } },
{ "type": "Feature", "properties": { "Country": "Japan", "Function": "123-5---", "LOCODE": "JPMOJ", "Name": "Moji\/Kitakyushu", "NameWoDiac": "Moji\/Kitakyushu", "Status": "AF", "outflows": 2497337.91658 }, "geometry": { "type": "Point", "coordinates": [ 130.966666666666669, 33.9 ] } },
{ "type": "Feature", "properties": { "Country": "Japan", "Function": "1--45---", "LOCODE": "JPOSA", "Name": "Osaka", "NameWoDiac": "Osaka", "Status": "AF", "outflows": 9088752.8333900012 }, "geometry": { "type": "Point", "coordinates": [ 135.5, 34.666666666666664 ] } },
{ "type": "Feature", "properties": { "Country": "Japan", "Function": "1-------", "LOCODE": "JPSEN", "Name": "Satsumasendai", "NameWoDiac": "Satsumasendai", "Status": "AF", "outflows": 1041560.0000199999 }, "geometry": { "type": "Point", "coordinates": [ 130.25, 31.816666666666666 ] } },
{ "type": "Feature", "properties": { "Country": "Japan", "Function": "12345---", "LOCODE": "JPTYO", "Name": "Tokyo", "NameWoDiac": "Tokyo", "Status": "AF", "outflows": 20969567.582899991 }, "geometry": { "type": "Point", "coordinates": [ 139.75, 35.68333333333333 ] } },
{ "type": "Feature", "properties": { "Country": "Japan", "Function": "12345---", "LOCODE": "JPYOK", "Name": "Yokohama", "NameWoDiac": "Yokohama", "Status": "AF", "outflows": 26921996.624540005 }, "geometry": { "type": "Point", "coordinates": [ 139.65, 35.45 ] } },
{ "type": "Feature", "properties": { "Country": "Cambodia", "Function": "1-34--7-", "LOCODE": "KHKOS", "Name": "Kâmpóng Saôm", "NameWoDiac": "Kampong Saom", "Status": "AI", "outflows": 1342444.99985 }, "geometry": { "type": "Point", "coordinates": [ 103.516666666666666, 10.6 ] } },
{ "type": "Feature", "properties": { "Country": "Comoros", "Function": "1-3-----", "LOCODE": "KMMUT", "Name": "Mutsamudu, Anjouan", "NameWoDiac": "Mutsamudu, Anjouan", "Status": "RL", "outflows": 143131.33335 }, "geometry": { "type": "Point", "coordinates": [ 44.383333333333333, -12.15 ] } },
{ "type": "Feature", "properties": { "Country": "Saint Kitts and Nevis", "Function": "1--4----", "LOCODE": "KNCHA", "Name": "Charlestown", "NameWoDiac": "Charlestown", "Status": "RL", "outflows": 230958.0 }, "geometry": { "type": "Point", "coordinates": [ -62.616666666666667, 17.133333333333333 ] } },
{ "type": "Feature", "properties": { "Country": "Korea, Republic of", "Function": "1234567-", "LOCODE": "KRPUS", "Name": "Busan", "NameWoDiac": "Busan", "Status": "AF", "outflows": 97226625.829958007 }, "geometry": { "type": "Point", "coordinates": [ 129.05, 35.133333333333333 ] } },
{ "type": "Feature", "properties": { "Country": "Korea, Republic of", "Function": "1-------", "LOCODE": "KRTSN", "Name": "Daesan\/Seosan", "NameWoDiac": "Daesan\/Seosan", "Status": "AF", "outflows": 391261.0 }, "geometry": { "type": "Point", "coordinates": [ 126.36666666666666, 37.0 ] } },
{ "type": "Feature", "properties": { "Country": "Korea, Republic of", "Function": "1-3-----", "LOCODE": "KRTJI", "Name": "Dangjin", "NameWoDiac": "Dangjin", "Status": "AF", "outflows": 80514.0 }, "geometry": { "type": "Point", "coordinates": [ 126.783333333333331, 36.966666666666669 ] } },
{ "type": "Feature", "properties": { "Country": "Korea, Republic of", "Function": "1234----", "LOCODE": "KRKUV", "Name": "Gunsan", "NameWoDiac": "Gunsan", "Status": "AF", "outflows": 367380.0 }, "geometry": { "type": "Point", "coordinates": [ 126.716666666666669, 35.983333333333334 ] } },
{ "type": "Feature", "properties": { "Country": "Korea, Republic of", "Function": "123-----", "LOCODE": "KRKAN", "Name": "Gwangyang", "NameWoDiac": "Gwangyang", "Status": "AF", "outflows": 16515872.093510004 }, "geometry": { "type": "Point", "coordinates": [ 127.7, 34.93333333333333 ] } },
{ "type": "Feature", "properties": { "Country": "Korea, Republic of", "Function": "123-----", "LOCODE": "KRINC", "Name": "Incheon", "NameWoDiac": "Incheon", "Status": "AF", "outflows": 7323842.7736799996 }, "geometry": { "type": "Point", "coordinates": [ 126.61666666666666, 37.45 ] } },
{ "type": "Feature", "properties": { "Country": "Korea, Republic of", "Function": "123-----", "LOCODE": "KRMAS", "Name": "Masan", "NameWoDiac": "Masan", "Status": "AF", "outflows": 292464.0 }, "geometry": { "type": "Point", "coordinates": [ 128.566666666666663, 35.2 ] } },
{ "type": "Feature", "properties": { "Country": "Korea, Republic of", "Function": "123-----", "LOCODE": "KRMOK", "Name": "Mokpo", "NameWoDiac": "Mokpo", "Status": "AF", "outflows": 64792.0 }, "geometry": { "type": "Point", "coordinates": [ 126.38333333333334, 34.8 ] } },
{ "type": "Feature", "properties": { "Country": "Korea, Republic of", "Function": "1234----", "LOCODE": "KRKPO", "Name": "Pohang", "NameWoDiac": "Pohang", "Status": "AF", "outflows": 704296.66661000007 }, "geometry": { "type": "Point", "coordinates": [ 129.366666666666674, 36.033333333333331 ] } },
{ "type": "Feature", "properties": { "Country": "Korea, Republic of", "Function": "123--6--", "LOCODE": "KRPTK", "Name": "Pyeongtaek", "NameWoDiac": "Pyeongtaek", "Status": "AF", "outflows": 201565.00002000004 }, "geometry": { "type": "Point", "coordinates": [ 127.1, 36.966666666666669 ] } },
{ "type": "Feature", "properties": { "Country": "Korea, Republic of", "Function": "1234----", "LOCODE": "KRUSN", "Name": "Ulsan", "NameWoDiac": "Ulsan", "Status": "AF", "outflows": 4923083.7499700002 }, "geometry": { "type": "Point", "coordinates": [ 129.316666666666663, 35.533333333333331 ] } },
{ "type": "Feature", "properties": { "Country": "Kuwait", "Function": "1-3--6--", "LOCODE": "KWSAA", "Name": "Shuaiba", "NameWoDiac": "Shuaiba", "Status": "RL", "outflows": 770515.0 }, "geometry": { "type": "Point", "coordinates": [ 48.133333333333333, 29.033333333333335 ] } },
{ "type": "Feature", "properties": { "Country": "Kuwait", "Function": "1-------", "LOCODE": "KWSWK", "Name": "Shuwaikh", "NameWoDiac": "Shuwaikh", "Status": "RL", "outflows": 272129.0 }, "geometry": { "type": "Point", "coordinates": [ 47.93333333333333, 29.35 ] } },
{ "type": "Feature", "properties": { "Country": "Cayman Islands", "Function": "1-34----", "LOCODE": "KYGEC", "Name": "Georgetown, Grand Cayman", "NameWoDiac": "Georgetown, Grand Cayman", "Status": "AI", "outflows": 20059.0 }, "geometry": { "type": "Point", "coordinates": [ -81.38333333333334, 19.3 ] } },
{ "type": "Feature", "properties": { "Country": "Lebanon", "Function": "1--45---", "LOCODE": "LBBEY", "Name": "Beirut", "NameWoDiac": "Beirut", "Status": "AI", "outflows": 8332419.5043999981 }, "geometry": { "type": "Point", "coordinates": [ 35.483333333333334, 33.833333333333336 ] } },
{ "type": "Feature", "properties": { "Country": "Saint Lucia", "Function": "1-3-----", "LOCODE": "LCCAS", "Name": "Castries", "NameWoDiac": "Castries", "Status": "RL", "outflows": 395089.06669000001 }, "geometry": { "type": "Point", "coordinates": [ -60.966666666666669, 14.016666666666667 ] } },
{ "type": "Feature", "properties": { "Country": "Sri Lanka", "Function": "12345---", "LOCODE": "LKCMB", "Name": "Colombo", "NameWoDiac": "Colombo", "Status": "AI", "outflows": 40970827.24107001 }, "geometry": { "type": "Point", "coordinates": [ 79.85, 6.916666666666667 ] } },
{ "type": "Feature", "properties": { "Country": "Liberia", "Function": "1-345---", "LOCODE": "LRMLW", "Name": "Monrovia", "NameWoDiac": "Monrovia", "Status": "AI", "outflows": 467272.00002000009 }, "geometry": { "type": "Point", "coordinates": [ -10.8, 6.3 ] } },
{ "type": "Feature", "properties": { "Country": "Libya", "Function": "1-3-----", "LOCODE": "LYKHO", "Name": "Al Khums", "NameWoDiac": "Al Khums", "Status": "RL", "outflows": 230254.00001 }, "geometry": { "type": "Point", "coordinates": [ 14.266666666666667, 32.65 ] } },
{ "type": "Feature", "properties": { "Country": "Morocco", "Function": "1--45---", "LOCODE": "MACAS", "Name": "Casablanca", "NameWoDiac": "Casablanca", "Status": "AI", "outflows": 2434027.9715000005 }, "geometry": { "type": "Point", "coordinates": [ -7.6, 33.583333333333336 ] } },
{ "type": "Feature", "properties": { "Country": "Moldova, Republic of", "Function": "1-3-----", "LOCODE": "MDGIU", "Name": "Giurgiulesti", "NameWoDiac": "Giurgiulesti", "Status": "RL", "outflows": 1560.0 }, "geometry": { "type": "Point", "coordinates": [ 28.183333333333334, 45.466666666666669 ] } },
{ "type": "Feature", "properties": { "Country": "Montenegro", "Function": "123-----", "LOCODE": "MEBAR", "Name": "Bar", "NameWoDiac": "Bar", "Status": "RL", "outflows": 257803.0 }, "geometry": { "type": "Point", "coordinates": [ 19.083333333333332, 42.083333333333336 ] } },
{ "type": "Feature", "properties": { "Country": "Madagascar", "Function": "1-------", "LOCODE": "MGEHL", "Name": "Ehoala", "NameWoDiac": "Ehoala", "Status": "RL", "outflows": 19864.0 }, "geometry": { "type": "Point", "coordinates": [ 46.95, -25.066666666666666 ] } },
{ "type": "Feature", "properties": { "Country": "Madagascar", "Function": "1-34----", "LOCODE": "MGNOS", "Name": "Nosy-Be", "NameWoDiac": "Nosy-Be", "Status": "AI", "outflows": 60888.0 }, "geometry": { "type": "Point", "coordinates": [ 48.25, -13.333333333333334 ] } },
{ "type": "Feature", "properties": { "Country": "Marshall Islands", "Function": "1--4----", "LOCODE": "MHMAJ", "Name": "Majuro", "NameWoDiac": "Majuro", "Status": "AI", "outflows": 238090.66668200004 }, "geometry": { "type": "Point", "coordinates": [ 171.383333333333326, 7.1 ] } },
{ "type": "Feature", "properties": { "Country": "Myanmar", "Function": "123-----", "LOCODE": "MMTLA", "Name": "Thilawa", "NameWoDiac": "Thilawa", "Status": "RL", "outflows": 629785.00001999992 }, "geometry": { "type": "Point", "coordinates": [ 96.25, 16.65 ] } },
{ "type": "Feature", "properties": { "Country": "Myanmar", "Function": "123-----", "LOCODE": "MMTLA", "Name": "Thilawa", "NameWoDiac": "Thilawa", "Status": "RL", "outflows": 629785.00001999992 }, "geometry": { "type": "Point", "coordinates": [ 96.25, 16.65 ] } },
{ "type": "Feature", "properties": { "Country": "Malta", "Function": "1-------", "LOCODE": "MTMAR", "Name": "Marsaxlokk", "NameWoDiac": "Marsaxlokk", "Status": "AA", "outflows": 12264680.76361 }, "geometry": { "type": "Point", "coordinates": [ 14.533333333333333, 35.833333333333336 ] } },
{ "type": "Feature", "properties": { "Country": "Mauritius", "Function": "1-3-----", "LOCODE": "MUPMA", "Name": "Port Mathurin", "NameWoDiac": "Port Mathurin", "Status": "RL", "outflows": 3451.5 }, "geometry": { "type": "Point", "coordinates": [ 63.416666666666664, -19.683333333333334 ] } },
{ "type": "Feature", "properties": { "Country": "Maldives", "Function": "1--45---", "LOCODE": "MVMLE", "Name": "Male", "NameWoDiac": "Male", "Status": "AI", "outflows": 224938.42858000004 }, "geometry": { "type": "Point", "coordinates": [ 73.5, 4.166666666666667 ] } },
{ "type": "Feature", "properties": { "Country": "Mexico", "Function": "1-3-----", "LOCODE": "MXATM", "Name": "Altamira", "NameWoDiac": "Altamira", "Status": "RL", "outflows": 6907067.8431760017 }, "geometry": { "type": "Point", "coordinates": [ -97.916666666666671, 22.4 ] } },
{ "type": "Feature", "properties": { "Country": "Mexico", "Function": "1--4----", "LOCODE": "MXCOA", "Name": "Coatzacoalcos", "NameWoDiac": "Coatzacoalcos", "Status": "AI", "outflows": 9100.0 }, "geometry": { "type": "Point", "coordinates": [ -94.4, 18.133333333333333 ] } },
{ "type": "Feature", "properties": { "Country": "Mexico", "Function": "1--4----", "LOCODE": "MXESE", "Name": "Ensenada", "NameWoDiac": "Ensenada", "Status": "AI", "outflows": 3482019.6660800003 }, "geometry": { "type": "Point", "coordinates": [ -116.6, 31.85 ] } },
{ "type": "Feature", "properties": { "Country": "Mexico", "Function": "1--4----", "LOCODE": "MXGYM", "Name": "Guaymas", "NameWoDiac": "Guaymas", "Status": "AI", "outflows": 15320.0 }, "geometry": { "type": "Point", "coordinates": [ -110.88333333333334, 27.916666666666668 ] } },
{ "type": "Feature", "properties": { "Country": "Mexico", "Function": "1-------", "LOCODE": "MXLZC", "Name": "Lázaro Cárdenas", "NameWoDiac": "Lazaro Cardenas", "Status": "AI", "outflows": 9280527.0998299997 }, "geometry": { "type": "Point", "coordinates": [ -102.183333333333337, 17.95 ] } },
{ "type": "Feature", "properties": { "Country": "Mexico", "Function": "1-34----", "LOCODE": "MXZLO", "Name": "Manzanillo", "NameWoDiac": "Manzanillo", "Status": "AI", "outflows": 14861828.233399997 }, "geometry": { "type": "Point", "coordinates": [ -104.3, 19.05 ] } },
{ "type": "Feature", "properties": { "Country": "Mexico", "Function": "1--4----", "LOCODE": "MXMZT", "Name": "Mazatlan", "NameWoDiac": "Mazatlan", "Status": "AI", "outflows": 258563.0 }, "geometry": { "type": "Point", "coordinates": [ -106.4, 23.4 ] } },
{ "type": "Feature", "properties": { "Country": "Mexico", "Function": "--3-----", "LOCODE": "MXPRO", "Name": "Paraiso", "NameWoDiac": "Paraiso", "Status": "RL", "outflows": 771394.2 }, "geometry": { "type": "Point", "coordinates": [ -92.2, 18.183333333333334 ] } },
{ "type": "Feature", "properties": { "Country": "Mexico", "Function": "1-3-----", "LOCODE": "MXPMD", "Name": "Puerto Madero", "NameWoDiac": "Puerto Madero", "Status": "AI", "outflows": 82680.0 }, "geometry": { "type": "Point", "coordinates": [ -92.416666666666671, 14.716666666666667 ] } },
{ "type": "Feature", "properties": { "Country": "Mexico", "Function": "1-3-----", "LOCODE": "MXPMS", "Name": "Puerto Morelos", "NameWoDiac": "Puerto Morelos", "Status": "RL", "outflows": 13533.0 }, "geometry": { "type": "Point", "coordinates": [ -86.86666666666666, 20.833333333333332 ] } },
{ "type": "Feature", "properties": { "Country": "Mexico", "Function": "1--4----", "LOCODE": "MXTAM", "Name": "Tampico", "NameWoDiac": "Tampico", "Status": "AI", "outflows": 33951.0 }, "geometry": { "type": "Point", "coordinates": [ -97.86666666666666, 22.25 ] } },
{ "type": "Feature", "properties": { "Country": "Mexico", "Function": "1-------", "LOCODE": "MXTUX", "Name": "Tuxpan", "NameWoDiac": "Tuxpan", "Status": "AI", "outflows": 21541.0 }, "geometry": { "type": "Point", "coordinates": [ -97.4, 20.95 ] } },
{ "type": "Feature", "properties": { "Country": "Mexico", "Function": "1-345---", "LOCODE": "MXVER", "Name": "Veracruz", "NameWoDiac": "Veracruz", "Status": "AI", "outflows": 8795504.2708560005 }, "geometry": { "type": "Point", "coordinates": [ -96.083333333333329, 19.2 ] } },
{ "type": "Feature", "properties": { "Country": "Malaysia", "Function": "1--4----", "LOCODE": "MYPEN", "Name": "Penang (Georgetown)", "NameWoDiac": "Penang (Georgetown)", "Status": "AI", "outflows": 3938506.0 }, "geometry": { "type": "Point", "coordinates": [ 100.316666666666663, 5.416666666666667 ] } },
{ "type": "Feature", "properties": { "Country": "Malaysia", "Function": "123-5---", "LOCODE": "MYPKG", "Name": "Port Klang (Pelabuhan Klang)", "NameWoDiac": "Port Klang (Pelabuhan Klang)", "Status": "RL", "outflows": 58866748.817210026 }, "geometry": { "type": "Point", "coordinates": [ 101.4, 3.0 ] } },
{ "type": "Feature", "properties": { "Country": "Malaysia", "Function": "123-----", "LOCODE": "MYTPP", "Name": "Tanjung Pelepas", "NameWoDiac": "Tanjung Pelepas", "Status": "RL", "outflows": 36861511.888539977 }, "geometry": { "type": "Point", "coordinates": [ 103.55, 1.366666666666667 ] } },
{ "type": "Feature", "properties": { "Country": "Namibia", "Function": "1--4----", "LOCODE": "NALUD", "Name": "Lüderitz", "NameWoDiac": "Luderitz", "Status": "AI", "outflows": 43992.0 }, "geometry": { "type": "Point", "coordinates": [ 15.166666666666666, -26.65 ] } },
{ "type": "Feature", "properties": { "Country": "New Caledonia", "Function": "1--45---", "LOCODE": "NCNOU", "Name": "Nouméa", "NameWoDiac": "Noumea", "Status": "AI", "outflows": 1152154.3332800004 }, "geometry": { "type": "Point", "coordinates": [ 166.45, -22.266666666666666 ] } },
{ "type": "Feature", "properties": { "Country": "New Caledonia", "Function": "1--45---", "LOCODE": "NCNOU", "Name": "Nouméa", "NameWoDiac": "Noumea", "Status": "AI", "outflows": 1152154.3332800004 }, "geometry": { "type": "Point", "coordinates": [ 166.45, -22.266666666666666 ] } },
{ "type": "Feature", "properties": { "Country": "Nigeria", "Function": "--3-----", "LOCODE": "NGLKK", "Name": "Lekki", "NameWoDiac": "Lekki", "Status": "RL", "outflows": 23036.0 }, "geometry": { "type": "Point", "coordinates": [ 3.1, 6.45 ] } },
{ "type": "Feature", "properties": { "Country": "Nigeria", "Function": "1-3-----", "LOCODE": "NGONN", "Name": "Onne", "NameWoDiac": "Onne", "Status": "RL", "outflows": 1341939.73318 }, "geometry": { "type": "Point", "coordinates": [ 7.15, 4.716666666666667 ] } },
{ "type": "Feature", "properties": { "Country": "Nicaragua", "Function": "1-3--6--", "LOCODE": "NIRAM", "Name": "Rama", "NameWoDiac": "Rama", "Status": "RL", "outflows": 9106.5 }, "geometry": { "type": "Point", "coordinates": [ -84.216666666666669, 12.15 ] } },
{ "type": "Feature", "properties": { "Country": "Netherlands", "Function": "12345---", "LOCODE": "NLAMS", "Name": "Amsterdam", "NameWoDiac": "Amsterdam", "Status": "AF", "outflows": 87949.333334999988 }, "geometry": { "type": "Point", "coordinates": [ 4.816666666666666, 52.4 ] } },
{ "type": "Feature", "properties": { "Country": "Netherlands", "Function": "1-3-----", "LOCODE": "NLBOT", "Name": "Botlek", "NameWoDiac": "Botlek", "Status": "AF", "outflows": 33735.0 }, "geometry": { "type": "Point", "coordinates": [ 4.283333333333333, 51.883333333333333 ] } },
{ "type": "Feature", "properties": { "Country": "Netherlands", "Function": "123-----", "LOCODE": "NLIJM", "Name": "IJmuiden\/Velsen", "NameWoDiac": "IJmuiden\/Velsen", "Status": "AF", "outflows": 9516.0 }, "geometry": { "type": "Point", "coordinates": [ 4.6, 52.466666666666669 ] } },
{ "type": "Feature", "properties": { "Country": "Netherlands", "Function": "123-----", "LOCODE": "NLMOE", "Name": "Moerdijk", "NameWoDiac": "Moerdijk", "Status": "AF", "outflows": 172497.0 }, "geometry": { "type": "Point", "coordinates": [ 4.566666666666666, 51.68333333333333 ] } },
{ "type": "Feature", "properties": { "Country": "Netherlands", "Function": "12345---", "LOCODE": "NLRTM", "Name": "Rotterdam", "NameWoDiac": "Rotterdam", "Status": "AF", "outflows": 60986246.198820002 }, "geometry": { "type": "Point", "coordinates": [ 4.5, 51.916666666666664 ] } },
{ "type": "Feature", "properties": { "Country": "Netherlands", "Function": "1-3-----", "LOCODE": "NLTNZ", "Name": "Terneuzen", "NameWoDiac": "Terneuzen", "Status": "AF", "outflows": 24232.0 }, "geometry": { "type": "Point", "coordinates": [ 3.816666666666666, 51.466666666666669 ] } },
{ "type": "Feature", "properties": { "Country": "Netherlands", "Function": "123-----", "LOCODE": "NLVLI", "Name": "Vlissingen", "NameWoDiac": "Vlissingen", "Status": "AF", "outflows": 935022.40001200011 }, "geometry": { "type": "Point", "coordinates": [ 3.7, 51.45 ] } },
{ "type": "Feature", "properties": { "Country": "Norway", "Function": "1-34----", "LOCODE": "NOAES", "Name": "Ålesund", "NameWoDiac": "Alesund", "Status": "AF", "outflows": 450729.5 }, "geometry": { "type": "Point", "coordinates": [ 6.15, 62.466666666666669 ] } },
{ "type": "Feature", "properties": { "Country": "Norway", "Function": "1-3-----", "LOCODE": "NOARD", "Name": "Årdalstangen", "NameWoDiac": "Ardalstangen", "Status": "AA", "outflows": 23400.0 }, "geometry": { "type": "Point", "coordinates": [ 7.7, 61.233333333333334 ] } },
{ "type": "Feature", "properties": { "Country": "Norway", "Function": "1-------", "LOCODE": "NOAVE", "Name": "Averøy", "NameWoDiac": "Averoy", "Status": "AA", "outflows": 34164.0 }, "geometry": { "type": "Point", "coordinates": [ 7.666666666666667, 63.05 ] } },
{ "type": "Feature", "properties": { "Country": "Norway", "Function": "1234----", "LOCODE": "NOBGO", "Name": "Bergen", "NameWoDiac": "Bergen", "Status": "AA", "outflows": 330739.5 }, "geometry": { "type": "Point", "coordinates": [ 5.316666666666666, 60.383333333333333 ] } },
{ "type": "Feature", "properties": { "Country": "Norway", "Function": "1234----", "LOCODE": "NOBOO", "Name": "Bodø", "NameWoDiac": "Bodo", "Status": "AA", "outflows": 9516.0 }, "geometry": { "type": "Point", "coordinates": [ 14.366666666666667, 67.283333333333331 ] } },
{ "type": "Feature", "properties": { "Country": "Norway", "Function": "1-3-----", "LOCODE": "NOBVK", "Name": "Brevik", "NameWoDiac": "Brevik", "Status": "AA", "outflows": 50128.0 }, "geometry": { "type": "Point", "coordinates": [ 9.7, 59.05 ] } },
{ "type": "Feature", "properties": { "Country": "Norway", "Function": "123-----", "LOCODE": "NODRM", "Name": "Drammen", "NameWoDiac": "Drammen", "Status": "AA", "outflows": 145713.0 }, "geometry": { "type": "Point", "coordinates": [ 10.233333333333333, 59.733333333333334 ] } },
{ "type": "Feature", "properties": { "Country": "Norway", "Function": "1-3-----", "LOCODE": "NOEGE", "Name": "Egersund", "NameWoDiac": "Egersund", "Status": "AA", "outflows": 142428.0 }, "geometry": { "type": "Point", "coordinates": [ 6.0, 58.45 ] } },
{ "type": "Feature", "properties": { "Country": "Norway", "Function": "1-34----", "LOCODE": "NOFRO", "Name": "Florø", "NameWoDiac": "Floro", "Status": "AA", "outflows": 203580.0 }, "geometry": { "type": "Point", "coordinates": [ 5.016666666666667, 61.6 ] } },
{ "type": "Feature", "properties": { "Country": "Norway", "Function": "123-----", "LOCODE": "NOFRK", "Name": "Fredrikstad", "NameWoDiac": "Fredrikstad", "Status": "AA", "outflows": 111033.0 }, "geometry": { "type": "Point", "coordinates": [ 10.916666666666666, 59.2 ] } },
{ "type": "Feature", "properties": { "Country": "Norway", "Function": "1-------", "LOCODE": "NOFUS", "Name": "Fusa", "NameWoDiac": "Fusa", "Status": "AA", "outflows": 99528.0 }, "geometry": { "type": "Point", "coordinates": [ 5.616666666666667, 60.2 ] } },
{ "type": "Feature", "properties": { "Country": "Norway", "Function": "1-3-----", "LOCODE": "NOGLO", "Name": "Glomfjord", "NameWoDiac": "Glomfjord", "Status": "AA", "outflows": 34164.0 }, "geometry": { "type": "Point", "coordinates": [ 13.933333333333334, 66.8 ] } },
{ "type": "Feature", "properties": { "Country": "Norway", "Function": "1-34----", "LOCODE": "NOHFT", "Name": "Hammerfest", "NameWoDiac": "Hammerfest", "Status": "AA", "outflows": 9516.0 }, "geometry": { "type": "Point", "coordinates": [ 23.666666666666668, 70.65 ] } },
{ "type": "Feature", "properties": { "Country": "Norway", "Function": "1-3-----", "LOCODE": "NOHRD", "Name": "Harstad", "NameWoDiac": "Harstad", "Status": "AA", "outflows": 9516.0 }, "geometry": { "type": "Point", "coordinates": [ 16.533333333333335, 68.783333333333331 ] } },
{ "type": "Feature", "properties": { "Country": "Norway", "Function": "1-34----", "LOCODE": "NOHAU", "Name": "Haugesund", "NameWoDiac": "Haugesund", "Status": "AA", "outflows": 337486.5 }, "geometry": { "type": "Point", "coordinates": [ 5.25, 59.4 ] } },
{ "type": "Feature", "properties": { "Country": "Norway", "Function": "1-3-----", "LOCODE": "NOHVI", "Name": "Håvik", "NameWoDiac": "Havik", "Status": "AA", "outflows": 116610.0 }, "geometry": { "type": "Point", "coordinates": [ 5.316666666666666, 59.3 ] } },
{ "type": "Feature", "properties": { "Country": "Norway", "Function": "--3-----", "LOCODE": "NOHLA", "Name": "Holla", "NameWoDiac": "Holla", "Status": "RL", "outflows": 45630.0 }, "geometry": { "type": "Point", "coordinates": [ 9.183333333333334, 59.6 ] } },
{ "type": "Feature", "properties": { "Country": "Norway", "Function": "1-3-----", "LOCODE": "NOHYR", "Name": "Høyanger", "NameWoDiac": "Hoyanger", "Status": "AA", "outflows": 39357.5 }, "geometry": { "type": "Point", "coordinates": [ 6.05, 61.216666666666669 ] } },
{ "type": "Feature", "properties": { "Country": "Norway", "Function": "1-3-----", "LOCODE": "NOHOY", "Name": "Husøy - Tønsberg", "NameWoDiac": "Husoy - Tonsberg", "Status": "AA", "outflows": 17160.0 }, "geometry": { "type": "Point", "coordinates": [ 10.45, 59.233333333333334 ] } },
{ "type": "Feature", "properties": { "Country": "Norway", "Function": "1-3-----", "LOCODE": "NOIKR", "Name": "Ikornnes", "NameWoDiac": "Ikornnes", "Status": "AA", "outflows": 69888.0 }, "geometry": { "type": "Point", "coordinates": [ 6.55, 62.383333333333333 ] } },
{ "type": "Feature", "properties": { "Country": "Norway", "Function": "123-----", "LOCODE": "NOKRS", "Name": "Kristiansand", "NameWoDiac": "Kristiansand", "Status": "AA", "outflows": 86460.0 }, "geometry": { "type": "Point", "coordinates": [ 7.983333333333333, 58.133333333333333 ] } },
{ "type": "Feature", "properties": { "Country": "Norway", "Function": "123-----", "LOCODE": "NOLAR", "Name": "Larvik", "NameWoDiac": "Larvik", "Status": "AA", "outflows": 123903.0 }, "geometry": { "type": "Point", "coordinates": [ 10.016666666666667, 59.033333333333331 ] } },
{ "type": "Feature", "properties": { "Country": "Norway", "Function": "1-3-----", "LOCODE": "NOMAY", "Name": "Måløy", "NameWoDiac": "Maloy", "Status": "AF", "outflows": 347613.5 }, "geometry": { "type": "Point", "coordinates": [ 5.1, 61.93333333333333 ] } },
{ "type": "Feature", "properties": { "Country": "Norway", "Function": "1-34----", "LOCODE": "NOMOL", "Name": "Molde", "NameWoDiac": "Molde", "Status": "AA", "outflows": 9516.0 }, "geometry": { "type": "Point", "coordinates": [ 7.15, 62.733333333333334 ] } },
{ "type": "Feature", "properties": { "Country": "Norway", "Function": "1234----", "LOCODE": "NOMJF", "Name": "Mosjøen", "NameWoDiac": "Mosjoen", "Status": "AF", "outflows": 42276.0 }, "geometry": { "type": "Point", "coordinates": [ 13.2, 65.833333333333329 ] } },
{ "type": "Feature", "properties": { "Country": "Norway", "Function": "123-----", "LOCODE": "NOMSS", "Name": "Moss", "NameWoDiac": "Moss", "Status": "AA", "outflows": 51012.0 }, "geometry": { "type": "Point", "coordinates": [ 10.65, 59.416666666666664 ] } },
{ "type": "Feature", "properties": { "Country": "Norway", "Function": "1-3-----", "LOCODE": "NOODD", "Name": "Odda", "NameWoDiac": "Odda", "Status": "AA", "outflows": 19240.0 }, "geometry": { "type": "Point", "coordinates": [ 6.533333333333333, 60.06666666666667 ] } },
{ "type": "Feature", "properties": { "Country": "Norway", "Function": "1-3-----", "LOCODE": "NOORK", "Name": "Orkanger", "NameWoDiac": "Orkanger", "Status": "AA", "outflows": 132567.5 }, "geometry": { "type": "Point", "coordinates": [ 9.833333333333334, 63.31666666666667 ] } },
{ "type": "Feature", "properties": { "Country": "Norway", "Function": "12345---", "LOCODE": "NOOSL", "Name": "Oslo", "NameWoDiac": "Oslo", "Status": "AA", "outflows": 370877.0 }, "geometry": { "type": "Point", "coordinates": [ 10.733333333333333, 59.9 ] } },
{ "type": "Feature", "properties": { "Country": "Norway", "Function": "1-3-----", "LOCODE": "NOSAT", "Name": "Salten", "NameWoDiac": "Salten", "Status": "AA", "outflows": 34164.0 }, "geometry": { "type": "Point", "coordinates": [ 15.583333333333334, 67.36666666666666 ] } },
{ "type": "Feature", "properties": { "Country": "Norway", "Function": "1234----", "LOCODE": "NOSVG", "Name": "Stavanger", "NameWoDiac": "Stavanger", "Status": "AI", "outflows": 99528.0 }, "geometry": { "type": "Point", "coordinates": [ 5.75, 58.966666666666669 ] } },
{ "type": "Feature", "properties": { "Country": "Norway", "Function": "1-34----", "LOCODE": "NOSKN", "Name": "Stokmarknes", "NameWoDiac": "Stokmarknes", "Status": "AA", "outflows": 34164.0 }, "geometry": { "type": "Point", "coordinates": [ 14.9, 68.566666666666663 ] } },
{ "type": "Feature", "properties": { "Country": "Norway", "Function": "1-3-----", "LOCODE": "NOSUN", "Name": "Sunndalsøra", "NameWoDiac": "Sunndalsora", "Status": "AF", "outflows": 107250.0 }, "geometry": { "type": "Point", "coordinates": [ 8.55, 62.666666666666664 ] } },
{ "type": "Feature", "properties": { "Country": "Norway", "Function": "1-3-----", "LOCODE": "NOSVE", "Name": "Svelgen", "NameWoDiac": "Svelgen", "Status": "AA", "outflows": 34164.0 }, "geometry": { "type": "Point", "coordinates": [ 5.283333333333333, 61.766666666666666 ] } },
{ "type": "Feature", "properties": { "Country": "Norway", "Function": "1-34----", "LOCODE": "NOSVJ", "Name": "Svolvær", "NameWoDiac": "Svolvar", "Status": "AA", "outflows": 9516.0 }, "geometry": { "type": "Point", "coordinates": [ 14.55, 68.216666666666669 ] } },
{ "type": "Feature", "properties": { "Country": "Norway", "Function": "1-3-----", "LOCODE": "NOTAE", "Name": "Tananger", "NameWoDiac": "Tananger", "Status": "AA", "outflows": 348445.5 }, "geometry": { "type": "Point", "coordinates": [ 5.583333333333333, 58.916666666666664 ] } },
{ "type": "Feature", "properties": { "Country": "Norway", "Function": "1-34----", "LOCODE": "NOTOS", "Name": "Tromsø", "NameWoDiac": "Tromso", "Status": "AI", "outflows": 9516.0 },